NOM_ENT,NOM_MUN,COM_ID,dec_lon,dec_lat,NOM_LOC,GRAPROES,por_menor,por_salud,LOC,PC1,PCA_norm,region
Campeche,Calkiní,4_1_2,-90.45245916666667,20.690499444444445,Isla Arena,8.49,0.24586776859504134,0.890495867768595,1,0.8165193020985765,0.5774771778148434,Golfo de México y Caribe
Campeche,Calkiní,4_1_9,-90.21930777777779,20.365076666666667,Pucnachén,8.2,0.2793404461687682,0.8748787584869059,2,0.5272666032646243,0.5493199862128527,Golfo de México y Caribe
Campeche,Calkiní,4_1_11,-90.2356975,20.437918888888888,San Nicolás,7.63,0.27543424317617865,0.9305210918114144,3,0.445153651277179,0.5413267328000546,Golfo de México y Caribe
Campeche,Calkiní,4_1_12,-90.24051916666667,20.39787111111111,Santa Cruz Ex-Hacienda,8.06,0.29697396199859255,0.8233638282899367,4,0.3031546403691954,0.5275038942455749,Golfo de México y Caribe
Campeche,Calkiní,4_1_14,-90.24278555555556,20.50789222222222,Tankuché,7.66,0.2719869706840391,0.8680781758957655,5,0.36225824447348154,0.5332573116271285,Golfo de México y Caribe
Campeche,Calkiní,4_1_16,-90.24536916666666,20.372651944444446,Santa María,6.91,0.2720306513409962,0.9003831417624522,6,0.1573408734461822,0.5133097097487305,Golfo de México y Caribe
Campeche,Campeche,4_2_1,-90.53964916666666,19.844814166666666,San Francisco de Campeche,11.13,0.22095319742171193,0.8064361056473162,7,1.7088410815064092,0.6643398947910433,Golfo de México y Caribe
Campeche,Campeche,4_2_68,-90.42054694444445,19.65893472222222,Uayamón,8.28,0.313915857605178,0.7961165048543689,8,0.25062429041294965,0.52239034773555,Golfo de México y Caribe
Campeche,Campeche,4_2_70,-90.36565888888889,19.908939444444442,Bethania,7.73,0.3046875,0.7390625,9,0.0026785762179028436,0.4982541685067086,Golfo de México y Caribe
Campeche,Campeche,4_2_71,-90.42053083333334,19.770520555555553,San Antonio Bobolá,6.65,0.2783018867924528,0.7783018867924528,10,-0.17829453691810154,0.48063741111111236,Golfo de México y Caribe
Campeche,Campeche,4_2_73,-90.43043222222222,19.837024166666666,Castamay,8.2,0.21169036334913113,0.8720379146919431,11,0.8469040796926696,0.5804349721861654,Golfo de México y Caribe
Campeche,Campeche,4_2_75,-90.35620805555556,19.92016166666667,Chemblás,7.13,0.28741496598639454,0.6683673469387755,12,-0.24811130556565192,0.4738411248888378,Golfo de México y Caribe
Campeche,Campeche,4_2_77,-90.49528111111111,19.76931972222222,Chiná,9.25,0.26942017474185864,0.7126290706910247,13,0.6555004129953721,0.5618028566061023,Golfo de México y Caribe
Campeche,Campeche,4_2_81,-90.38786083333333,19.926273611111114,Hampolol,8.44,0.25634725634725636,0.7862407862407862,14,0.5653020656215966,0.5530225335203556,Golfo de México y Caribe
Campeche,Campeche,4_2_82,-90.49047083333333,19.609005833333335,Hobomó,7.59,0.2761627906976744,0.8837209302325582,15,0.3453382260891042,0.5316102390104211,Golfo de México y Caribe
Campeche,Campeche,4_2_86,-90.47362694444445,19.875685555555556,Imí,10.05,0.24227740763173833,0.7613567534827377,16,1.1505167952347255,0.6099900340361705,Golfo de México y Caribe
Campeche,Campeche,4_2_87,-90.60070194444444,19.806181666666667,Lerma,9.43,0.21636383903689665,0.860885074127745,17,1.233814681129946,0.6180986343799096,Golfo de México y Caribe
Campeche,Campeche,4_2_89,-90.46217166666666,19.68785111111111,Mucuychakán,6.07,0.28426395939086296,0.7969543147208121,18,-0.3763535608591358,0.4613574323655645,Golfo de México y Caribe
Campeche,Campeche,4_2_90,-90.27065694444444,19.84552888888889,Nilchí,7.75,0.2936802973977695,0.8224907063197026,19,0.20930990619313544,0.5183686150530717,Golfo de México y Caribe
Campeche,Campeche,4_2_93,-90.52295138888888,19.712464722222222,San Agustín Olá,7.37,0.29441624365482233,0.8274111675126904,20,0.08191205431469589,0.5059671206522105,Golfo de México y Caribe
Campeche,Campeche,4_2_97,-90.35067,19.729957499999998,Pocyaxum,7.72,0.24354243542435425,0.8210332103321033,21,0.43688231795684723,0.5405215630711518,Golfo de México y Caribe
Campeche,Campeche,4_2_101,-90.41711027777778,19.916219444444444,San Francisco Kobén,8.45,0.29102167182662536,0.8057275541795665,22,0.4366920124539978,0.5405030378559049,Golfo de México y Caribe
Campeche,Campeche,4_2_178,-90.66727444444444,19.724171666666663,Ensenada,7,0,1,23,1.669469641456979,0.6605072972540554,Golfo de México y Caribe
Campeche,Campeche,4_2_200,-90.43078,19.8967,Horticultores de Kobén,7.48,0.3404255319148936,0.7021276595744681,24,-0.3210145083141897,0.46674439093798964,Golfo de México y Caribe
Campeche,Campeche,4_2_249,-90.39793583333334,19.796704722222223,Miguel Alemán (X-Campéu),5.95,0.2465753424657534,0.6712328767123288,25,-0.4586169083887799,0.4533495387571352,Golfo de México y Caribe
Campeche,Campeche,4_2_326,-90.64277777777778,19.773333333333333,Mar Azul,9.9,0.16666666666666666,0.9166666666666666,26,1.7343909116544367,0.6668270330814601,Golfo de México y Caribe
Campeche,Campeche,4_2_329,-90.63616972222223,19.77809611111111,Club Náutico y Deportivo de Campeche,17.67,0.25,0.4166666666666667,27,3.1642982599508835,0.8060208084252479,Golfo de México y Caribe
Campeche,Campeche,4_2_402,-90.50169194444445,19.74675527777778,San Francisco Uxmal,13.89,0.18181818181818182,0.9090909090909091,28,3.039875064026245,0.7939088807526449,Golfo de México y Caribe
Campeche,Campeche,4_2_501,-90.46584777777778,19.82031027777778,Nuevo San Antonio Ebulá,6.87,0.19148936170212766,0.648936170212766,29,0.0873387958343519,0.506495384697315,Golfo de México y Caribe
Campeche,Campeche,4_2_520,-90.51050611111111,19.73611138888889,La Palma,7.5,0.2727272727272727,0.6363636363636364,30,-0.10491673785241051,0.4877803444560873,Golfo de México y Caribe
Campeche,Campeche,4_2_585,-90.26948888888889,19.79485027777778,Nueva Esperanza,7.54,0.07142857142857142,0.2857142857142857,31,0.2578708828071984,0.5230957644570843,Golfo de México y Caribe
Campeche,Campeche,4_2_875,-90.50034388888889,19.745899166666668,San Francisco,6.85,0.13043478260869565,0.6521739130434783,32,0.3790493007360146,0.534891830476183,Golfo de México y Caribe
Campeche,Campeche,4_2_960,-90.46615361111111,19.831718333333335,Seet Ka'an (Rincón del Cielo),4.8,0.16666666666666666,0.8333333333333334,33,-0.19091995643555648,0.4794083945527826,Golfo de México y Caribe
Campeche,Campeche,4_2_976,-90.39961111111111,19.828598055555556,Escondido,6,0,0.5,34,0.4407069070428082,0.5408938662099866,Golfo de México y Caribe
Campeche,Carmen,4_3_1,-91.83645,18.637789444444444,Ciudad del Carmen,11,0.22983925788807663,0.7574174588732365,35,1.5345872139788963,0.6473772197489802,Golfo de México y Caribe
Campeche,Carmen,4_3_5,-92.28904861111111,18.622946666666667,Nuevo Progreso,9.05,0.27687048993543484,0.7662362324344854,36,0.6443469454513197,0.5607171266408142,Golfo de México y Caribe
Campeche,Carmen,4_3_6,-92.10385027777777,18.61923416666667,Atasta,8.08,0.25147492625368734,0.7488938053097345,37,0.3974006480587359,0.5366782352523651,Golfo de México y Caribe
Campeche,Carmen,4_3_7,-91.62666444444444,18.733713611111114,Santa Isabel,4.5,0.42857142857142855,1,38,-1.259031161109435,0.3754335242629802,Golfo de México y Caribe
Campeche,Carmen,4_3_13,-91.93906083333334,18.620912222222223,Puerto Rico,8.16,0.3210059171597633,0.8505917159763313,39,0.2706276679876539,0.5243375687548472,Golfo de México y Caribe
Campeche,Carmen,4_3_16,-91.88440833333334,18.563358611111113,El Playaso,7.29,0.125,1,40,1.1707614773597883,0.6119607447531827,Golfo de México y Caribe
Campeche,Carmen,4_3_31,-91.54568555555555,18.323047222222222,Santa Rita,6.62,0.3308270676691729,0.5827067669172933,41,-0.7850646169574091,0.4215716133816684,Golfo de México y Caribe
Campeche,Carmen,4_3_55,-91.69791027777778,18.698909166666667,Bahamita [Jaibera],7.68,0.22641509433962265,0.7358490566037735,42,0.35519671704488787,0.5325699099827839,Golfo de México y Caribe
Campeche,Carmen,4_3_64,-90.9442375,18.899880833333334,Ignacio Gutiérrez,6.7,0.3661814109742441,0.8230683090705487,43,-0.5037810485954537,0.44895305307363076,Golfo de México y Caribe
Campeche,Carmen,4_3_65,-90.97165277777778,18.71869222222222,José María Pino Suárez,7.28,0.29464285714285715,0.7619047619047619,44,-0.06585571270768721,0.4915827247747633,Golfo de México y Caribe
Campeche,Carmen,4_3_82,-91.27816694444445,18.857086666666667,Calax,6.57,0.3897058823529412,0.7867647058823529,45,-0.7259026197050136,0.42733071502154085,Golfo de México y Caribe
Campeche,Carmen,4_3_101,-92.22438666666667,18.61777916666667,San Antonio Cárdenas,8.42,0.2796352583586626,0.6424229266174555,46,0.19345105305752786,0.5168248411552748,Golfo de México y Caribe
Campeche,Carmen,4_3_118,-92.46523861111112,18.645004166666666,Nuevo Campechito,8.23,0.32127659574468087,0.6723404255319149,47,-0.019984091687818603,0.49604807990319316,Golfo de México y Caribe
Campeche,Carmen,4_3_199,-91.4834563888889,18.78302083333333,Isla Aguada,8.14,0.2952755905511811,0.7112860892388452,48,0.14194611775675925,0.5118111132365445,Golfo de México y Caribe
Campeche,Carmen,4_3_262,-92.31144638888888,18.664831944444444,Colonia Emiliano Zapata,8.18,0.3156808803301238,0.5020632737276479,49,-0.31026013975945327,0.46779127076720073,Golfo de México y Caribe
Campeche,Carmen,4_3_364,-90.97648666666667,18.69601638888889,Independencia,6.93,0.31376975169300225,0.600451467268623,50,-0.563865848820879,0.44310412153683,Golfo de México y Caribe
Campeche,Carmen,4_3_450,-91.09333444444444,19.021427222222222,Nohan,3.42,0.52,0.44,51,-3.060040276674949,0.2001149915462944,Golfo de México y Caribe
Campeche,Carmen,4_3_611,-91.0104275,18.825222222222223,Checubul,6.85,0.28716216216216217,0.7421171171171171,52,-0.21474816346630576,0.4770888469959183,Golfo de México y Caribe
Campeche,Carmen,4_3_612,-91.05597055555555,18.7295125,La Cristalina,5.83,0.3012345679012346,0.9037037037037037,53,-0.3536115912237763,0.4635712405651452,Golfo de México y Caribe
Campeche,Carmen,4_3_613,-90.96762944444444,18.740636666666667,Nicolás Bravo,6.74,0.2994011976047904,0.7245508982035929,54,-0.3427602723787887,0.46462755798269856,Golfo de México y Caribe
Campeche,Carmen,4_3_614,-91.180515,18.97464472222222,Sabancuy,7.84,0.28951446280991733,0.7277892561983471,55,0.09401230530519386,0.5071450148842958,Golfo de México y Caribe
Campeche,Carmen,4_3_733,-91.22076750000001,18.58006111111111,Bella Palizada,1.73,0.21428571428571427,0.5714285714285714,56,-1.9510633390207346,0.30806792073795564,Golfo de México y Caribe
Campeche,Carmen,4_3_756,-91.13769,18.465235,La Bretaña,11.17,0,0.3333333333333333,57,1.9504258812450297,0.6878568732731484,Golfo de México y Caribe
Campeche,Carmen,4_3_760,-91.10644666666666,18.50552111111111,Buena Vista (Las Arboleras),5.6,0.2857142857142857,1,58,-0.1898633037303079,0.4795112539998971,Golfo de México y Caribe
Campeche,Carmen,4_3_811,-91.53605944444445,18.204699166666664,Centauro del Norte,7.11,0.328,0.712,59,-0.37305047566541133,0.46167896991059804,Golfo de México y Caribe
Campeche,Carmen,4_3_830,-91.12035527777778,18.487335277777778,La Nueva Esperanza,6.69,0.37630662020905925,0.6480836236933798,60,-0.8638334587364151,0.4139038910780243,Golfo de México y Caribe
Campeche,Carmen,4_3_1138,-91.08146527777778,18.715274444444443,Los Manantiales,6.34,0.32558139534883723,0.8449612403100775,61,-0.3959700571477386,0.45944787215477106,Golfo de México y Caribe
Campeche,Carmen,4_3_1167,-90.97578277777778,18.841536944444442,Mina de Oro,8,0.3333333333333333,0.5,62,-0.46137728387421706,0.45308083107782837,Golfo de México y Caribe
Campeche,Carmen,4_3_1285,-91.24391222222222,18.55384861111111,Polboxal,6.86,0.36363636363636365,0.8181818181818182,63,-0.44436770393931896,0.45473662202887927,Golfo de México y Caribe
Campeche,Carmen,4_3_1340,-92.42929833333334,18.64925472222222,El Recuerdo,9.14,0.36363636363636365,0.36363636363636365,64,-0.44921824016248224,0.45426444846452335,Golfo de México y Caribe
Campeche,Carmen,4_3_1351,-92.42596305555556,18.518193333333333,Ribera de San Francisco,5.88,0.3055555555555556,0.4027777777777778,65,-1.2385482777545,0.37742742258618034,Golfo de México y Caribe
Campeche,Carmen,4_3_1404,-91.67292416666668,18.712330555555553,San Benito,6.9,0.2857142857142857,1,66,0.26351619682251404,0.5236453053568699,Golfo de México y Caribe
Campeche,Carmen,4_3_1539,-91.68246083333334,18.34293361111111,Santa Cruz,4.5,0.3939393939393939,0.31313131313131315,67,-2.3017415032509065,0.2739312910689215,Golfo de México y Caribe
Campeche,Carmen,4_3_1717,-91.96363027777778,18.599926944444444,Pinzón,0,0.2857142857142857,0,68,-3.9029012356280024,0.11806701892321923,Golfo de México y Caribe
Campeche,Carmen,4_3_1722,-92.43622,18.64663861111111,La Envidia,4.14,0,0,69,-1.0879838046601529,0.3920840627297663,Golfo de México y Caribe
Campeche,Carmen,4_3_1776,-90.96668,18.863221388888892,Oxcabal,7.17,0.3226221079691517,0.8817480719794345,70,-0.02755822837519417,0.4953107785096855,Golfo de México y Caribe
Campeche,Carmen,4_3_1830,-91.74493111111111,18.673165555555556,El Fénix (Ecoparque),13.29,0,0.14285714285714285,71,2.3545415930079168,0.7271953602478698,Golfo de México y Caribe
Campeche,Carmen,4_3_1843,-91.68552333333334,18.704876388888888,Cocodrilos Maya,7.36,0.47619047619047616,0.9047619047619048,72,-0.6577300900996639,0.43396694343298997,Golfo de México y Caribe
Campeche,Carmen,4_3_1847,-91.6205825,18.73300972222222,Ensenada Grande,8.79,0.2222222222222222,0.6111111111111112,73,0.5428926054586967,0.5508410933262013,Golfo de México y Caribe
Campeche,Carmen,4_3_2044,-91.185185,18.400360555555554,San Manuel,7.13,0.4666666666666667,1,74,-0.5246199692699595,0.4469244964358668,Golfo de México y Caribe
Campeche,Carmen,4_3_2221,-92.38026972222221,18.47571083333333,Ribera Media San Francisco,5.11,0.32142857142857145,0.42857142857142855,75,-1.5378621451978152,0.34829083043437353,Golfo de México y Caribe
Campeche,Carmen,4_3_2222,-92.35736694444444,18.444645833333333,Ribera Alta San Francisco,4.5,0.2727272727272727,0.2727272727272727,76,-1.7911838673438738,0.32363132579995885,Golfo de México y Caribe
Campeche,Carmen,4_3_2248,-91.57756888888889,18.3323875,Generalísimo Morelos,7.7,0.12307692307692308,0.6153846153846154,77,0.6460485974655795,0.5608827732951015,Golfo de México y Caribe
Campeche,Carmen,4_3_2249,-91.58277777777778,18.333888888888886,Valle de Solidaridad,8.6,0.23076923076923078,0.6153846153846154,78,0.4431357376677896,0.5411302997836475,Golfo de México y Caribe
Campeche,Carmen,4_3_2250,-91.58341916666666,18.336092777777775,Murallas de Campeche,6.26,0.3418803418803419,0.7777777777777778,79,-0.6203294242316977,0.43760769672286987,Golfo de México y Caribe
Campeche,Carmen,4_3_2251,-91.61011111111111,18.323529166666667,Fernando Foglio Miramontes,6.78,0.3668639053254438,0.7692307692307693,80,-0.5739109758685426,0.4421262825466059,Golfo de México y Caribe
Campeche,Carmen,4_3_2268,-91.64308194444445,18.255119166666667,Beraca,4.96,0.13793103448275862,0.7586206896551724,81,-0.1287192551710491,0.4854632976542687,Golfo de México y Caribe
Campeche,Carmen,4_3_2724,-91.54809305555555,18.76991,Careyes (Huarixe),4.56,0.3076923076923077,0.7692307692307693,82,-1.0641925759526323,0.39440001064612096,Golfo de México y Caribe
Campeche,Carmen,4_3_2978,-91.81754527777777,18.241426944444445,San Fernando,5.04,0.3783783783783784,0.5135135135135135,83,-1.6860644583617084,0.33386413383158925,Golfo de México y Caribe
Campeche,Carmen,4_3_3080,-91.80141305555556,18.217362499999997,El Zapote,6.61,0.38345864661654133,0.48120300751879697,84,-1.219767668628894,0.3792556136858089,Golfo de México y Caribe
Campeche,Carmen,4_3_3140,-91.81083333333333,18.223702777777778,San Joaquín,5.33,0.45454545454545453,0.45454545454545453,85,-2.054219366574433,0.29802623730876454,Golfo de México y Caribe
Campeche,Carmen,4_3_3155,-91.43635777777779,18.282495277777777,Juan de la Cabada Vera,6.22,0.36162361623616235,0.6309963099630996,86,-0.9873611668243774,0.40187913432101224,Golfo de México y Caribe
Campeche,Carmen,4_3_3191,-91.80814027777778,18.22189361111111,San José las Flores,5.82,0.26666666666666666,0.6666666666666666,87,-0.6084051838360602,0.43876845727197333,Golfo de México y Caribe
Campeche,Carmen,4_3_3194,-91.8042325,18.219829166666663,San Luis,6.57,0.25,0.5714285714285714,88,-0.4344813454211443,0.45569900575827715,Golfo de México y Caribe
Campeche,Carmen,4_3_3217,-91.51147833333333,18.21173861111111,El Aguacatal,7.37,0.2860310421286031,0.5720620842572062,89,-0.3272683860658452,0.46613560963769873,Golfo de México y Caribe
Campeche,Carmen,4_3_3230,-91.10432999999999,18.50486111111111,Don Paco,8.2,0.5,1,90,-0.31141287645323523,0.4676790580615482,Golfo de México y Caribe
Campeche,Carmen,4_3_3257,-91.24860111111111,18.30386138888889,El Recuerdo,6.75,0.4666666666666667,0.8,91,-1.0091499937963535,0.3997581094237312,Golfo de México y Caribe
Campeche,Carmen,4_3_3260,-91.19323111111112,18.386310833333333,Las Gemelas [Quinta],6.88,0.4666666666666667,0.9333333333333333,92,-0.7291429044209485,0.42701529076462164,Golfo de México y Caribe
Campeche,Carmen,4_3_3304,-90.91732916666668,18.670242222222225,Enrique Rodríguez Cano,6.36,0.30184804928131415,0.7885010266940452,93,-0.3744750624363339,0.46154029406479186,Golfo de México y Caribe
Campeche,Carmen,4_3_3318,-91.25021444444444,18.301783888888888,La Estrella,8,0.3888888888888889,0.8888888888888888,94,-0.04352414666459864,0.493756582396084,Golfo de México y Caribe
Campeche,Carmen,4_3_3333,-91.08939916666667,18.525034444444444,Mamantel (Pancho Villa),8.37,0.2822865208186309,0.8038108680310515,95,0.44733634214839707,0.5415392059950033,Golfo de México y Caribe
Campeche,Carmen,4_3_3354,-91.30681694444444,18.38753638888889,Ignacio Zaragoza,7.22,0.35400516795865633,0.9457364341085271,96,-0.048100043019495,0.4933111435430151,Golfo de México y Caribe
Campeche,Carmen,4_3_3395,-91.00171833333333,18.631106388888888,Licenciado Gustavo Díaz Ordaz (18 de Marzo),6.81,0.3129548762736536,0.8158660844250364,97,-0.2226721407770181,0.4763174905028346,Golfo de México y Caribe
Campeche,Carmen,4_3_3402,-91.09773861111111,18.541517222222225,Mamantel Pueblo (Mamantel Viejo),7.97,0.2716049382716049,0.7777777777777778,98,0.3132747293401732,0.5284890303751035,Golfo de México y Caribe
Campeche,Carmen,4_3_3407,-91.48493666666667,18.225160555555554,Mayalam [Rancho],9,0.375,0.375,99,-0.5325750293786791,0.4461501141998858,Golfo de México y Caribe
Campeche,Carmen,4_3_3420,-91.09376083333333,18.477594999999997,Nueva Chontalpa,6.48,0.2847682119205298,0.909933774834437,100,-0.03693849005941957,0.49439766057998497,Golfo de México y Caribe
Campeche,Carmen,4_3_3431,-91.16450694444445,18.428787222222223,Ojo de Agua de Cuyoc,6.29,0.2222222222222222,0.7777777777777778,101,-0.035654625300421905,0.49452263789620665,Golfo de México y Caribe
Campeche,Carmen,4_3_3452,-91.03307944444444,18.59779,Pital Nuevo,6.74,0.28874388254486133,0.7292006525285482,102,-0.28343457910375286,0.4704025945483039,Golfo de México y Caribe
Campeche,Carmen,4_3_3453,-91.12468638888888,18.550441111111112,Pital Viejo,5.68,0.33121019108280253,0.856687898089172,103,-0.6325195218128491,0.4364210564093201,Golfo de México y Caribe
Campeche,Carmen,4_3_3461,-91.41725583333334,18.2370925,El Porvenir,4.31,0.5294117647058824,0.9411764705882353,104,-1.9127347386195692,0.31179900345449507,Golfo de México y Caribe
Campeche,Carmen,4_3_3474,-91.2378475,18.399716388888887,Puerta Blanca,0.9,0.375,0,105,-4.017485025622569,0.10691290439856486,Golfo de México y Caribe
Campeche,Carmen,4_3_3511,-91.09252027777778,18.466702777777776,San Antonio,8.2,0.375,1,106,0.2884337916134309,0.5260708989420534,Golfo de México y Caribe
Campeche,Carmen,4_3_3514,-91.4141838888889,18.241468055555558,San Carlos,6.5,0.25,0.875,107,0.07539725622917645,0.5053329401633793,Golfo de México y Caribe
Campeche,Carmen,4_3_3531,-91.04972083333332,18.632291944444447,San Isidro,7.69,0.27008547008547007,0.7367521367521368,108,0.15070945439824893,0.5126641768376169,Golfo de México y Caribe
Campeche,Carmen,4_3_3533,-91.16236944444445,18.431961666666666,San Jorge de Coyoc,6.42,0.4666666666666667,0.5555555555555556,109,-1.5544653916646036,0.34667459385692745,Golfo de México y Caribe
Campeche,Carmen,4_3_3580,-91.18817361111111,18.395142222222223,Kilómetro 59,6.23,0.30864197530864196,0.9506172839506173,110,-0.1670879044147921,0.4817283163987063,Golfo de México y Caribe
Campeche,Carmen,4_3_3604,-91.12548361111111,18.479241944444443,Santa Lucía,6.14,0.125,0.25,111,-0.5503189125741701,0.4444228427831874,Golfo de México y Caribe
Campeche,Carmen,4_3_3644,-91.25654805555556,18.298106944444445,La Victoria,5.43,0.125,1,112,0.5220800381072894,0.548815102042437,Golfo de México y Caribe
Campeche,Carmen,4_3_3771,-91.71143944444445,18.691964444444444,Bahamita Beach,6.57,0.17647058823529413,0.8235294117647058,113,0.3620717899712451,0.5332391612860404,Golfo de México y Caribe
Campeche,Carmen,4_3_3781,-90.91179555555556,18.897827499999998,El Arca,5.21,0.3049645390070922,0.9645390070921985,114,-0.48066676141152004,0.4512031043803433,Golfo de México y Caribe
Campeche,Carmen,4_3_3804,-91.80188916666667,18.209982222222223,Los Coquitos,6,0,1,115,1.32071617949327,0.626558026979461,Golfo de México y Caribe
Campeche,Carmen,4_3_3848,-92.31906333333333,18.630900833333335,La Flor,5.55,0.21428571428571427,0.14285714285714285,116,-1.3731187764197619,0.3643277096702141,Golfo de México y Caribe
Campeche,Carmen,4_3_3884,-91.63012722222221,18.735503055555558,Las Gaviotas [Fraccionamiento],8,0.16666666666666666,0.3333333333333333,117,0.045081849397850426,0.5023818986620104,Golfo de México y Caribe
Campeche,Carmen,4_3_3885,-92.30367138888889,18.65972722222222,El Limonal,6.15,0.2702702702702703,0.918918918918919,118,-0.06664077634828369,0.49150630305964316,Golfo de México y Caribe
Campeche,Carmen,4_3_3904,-91.27056222222222,18.289503055555556,El Pedacito,5.73,0,1,119,1.2265527447630689,0.6173917240053205,Golfo de México y Caribe
Campeche,Carmen,4_3_3922,-91.02166666666666,18.611685833333336,El Amanecer,12.33,0.3333333333333333,0.1111111111111111,120,0.3642735500782841,0.5334534907683424,Golfo de México y Caribe
Campeche,Carmen,4_3_3932,-92.31640777777777,18.67188,El Regalo,4.91,0.08333333333333333,0.5,121,-0.3393321452087455,0.46496126769034185,Golfo de México y Caribe
Campeche,Carmen,4_3_3941,-91.09176444444444,18.46610361111111,El Sacrificio,6,0.4,1,122,-0.5987931583200622,0.43970413616184445,Golfo de México y Caribe
Campeche,Carmen,4_3_3982,-92.31147583333333,18.671741944444445,San Víctor,8.3,0.16666666666666666,1,123,1.3230535845875795,0.6267855607703547,Golfo de México y Caribe
Campeche,Carmen,4_3_4012,-91.78622916666666,18.185142777777777,Tumbo de la Montaña 2,6.35,0.2913907284768212,0.5761589403973509,124,-0.7015062944692708,0.4297055658243734,Golfo de México y Caribe
Campeche,Carmen,4_3_4098,-91.44533416666667,18.23128722222222,Los Tamarindos,3,0.375,0.125,125,-3.0651004373861648,0.19962241216758178,Golfo de México y Caribe
Campeche,Carmen,4_3_4184,-91.18479583333334,18.395290555555555,Las Golondrinas,7.43,0.36363636363636365,0.7272727272727273,126,-0.405579916520089,0.45851240412731187,Golfo de México y Caribe
Campeche,Carmen,4_3_4225,-91.31921055555556,18.276931944444442,Cerrito la Bonita,3.38,0.38461538461538464,0.8461538461538461,127,-1.7094720302723017,0.33158553283709236,Golfo de México y Caribe
Campeche,Carmen,4_3_4519,-91.68323000000001,18.7089775,Punta del Este [Fraccionamiento],18,0.5384615384615384,1,128,2.9218028452321394,0.7824151864816492,Golfo de México y Caribe
Campeche,Carmen,4_3_4564,-91.93530638888889,18.634301666666666,La Antorcha,7.67,0.256198347107438,0.7520661157024794,129,0.23732842768703655,0.52109606714354,Golfo de México y Caribe
Campeche,Carmen,4_3_4615,-92.31588972222222,18.62817777777778,Ninguno [Rancho],1.64,0.47619047619047616,0.5238095238095238,130,-3.323083147732432,0.1745091854474719,Golfo de México y Caribe
Campeche,Carmen,4_3_4634,-91.76782305555555,18.248491666666666,Río Verde 9 [Campo Menonita],8.4,0.375,0.59375,131,-0.35682304985982727,0.46325862237177423,Golfo de México y Caribe
Campeche,Carmen,4_3_4638,-91.56555388888889,18.762056944444446,Villa Vista Delfín,8.43,0.36363636363636365,0.7272727272727273,132,-0.056826454556379934,0.49246167440190625,Golfo de México y Caribe
Campeche,Carmen,4_3_4642,-92.4351463888889,18.647703888888888,San Juanito,7.36,0.21428571428571427,0.42857142857142855,133,-0.23901256886518424,0.4747268378783584,Golfo de México y Caribe
Campeche,Carmen,4_3_4644,-91.74787888888889,18.252304166666665,Río Verde 10 [Campo Menonita],6,0.5789473684210527,0.631578947368421,134,-2.105948904936893,0.2929906454922454,Golfo de México y Caribe
Campeche,Carmen,4_3_4645,-91.75734777777778,18.241966666666666,Río Verde 2 [Campo Menonita],5.87,0.40789473684210525,0.5263157894736842,135,-1.5157091560484133,0.35044730455735,Golfo de México y Caribe
Campeche,Carmen,4_3_4649,-91.73490444444444,18.249867222222225,Río Verde 3 [Campo Menonita],6.05,0.5227272727272727,0.7045454545454546,136,-1.6903013294080582,0.33345169726547974,Golfo de México y Caribe
Campeche,Carmen,4_3_4654,-91.72571305555556,18.238670000000003,Río Verde 4 [Campo Menonita],6,0.5,1,137,-1.0786704927733948,0.3929906634574404,Golfo de México y Caribe
Campeche,Champotón,4_4_1,-90.72389111111112,19.356218611111114,Champotón,9.19,0.27967261655353504,0.7219196066929244,138,0.601727576450711,0.5565683607217968,Golfo de México y Caribe
Campeche,Champotón,4_4_3,-90.56472944444444,19.193471944444443,López Mateos (La Desconfianza),7.94,0.26552462526766596,0.8715203426124197,139,0.4969788220065309,0.5463716339121785,Golfo de México y Caribe
Campeche,Champotón,4_4_4,-90.46348333333334,19.377470833333334,Arellano,7.49,0.27424749163879597,0.7909698996655519,140,0.1564104321066856,0.5132191362979858,Golfo de México y Caribe
Campeche,Champotón,4_4_5,-90.56864138888889,19.296993055555557,Canasayab,7.88,0.33760683760683763,0.8162393162393162,141,0.03285178350268042,0.501191367648459,Golfo de México y Caribe
Campeche,Champotón,4_4_14,-90.44508777777779,19.513710833333334,Hool,7.35,0.27682227682227684,0.7895167895167895,142,0.09267163611577328,0.5070145079628615,Golfo de México y Caribe
Campeche,Champotón,4_4_16,-90.67524305555555,19.48297583333333,La Joya,7.37,0.26677852348993286,0.8582214765100671,143,0.2687659243551495,0.5241563380441726,Golfo de México y Caribe
Campeche,Champotón,4_4_17,-90.70270944444445,19.478346666666663,Ciudad del Sol,8.6,0.23994252873563218,0.9123563218390804,144,0.9217908705758926,0.5877247977534199,Golfo de México y Caribe
Campeche,Champotón,4_4_19,-90.67368583333334,19.352898055555556,Moquel,7.77,0.2397163120567376,0.8992907801418439,145,0.6104154640284697,0.55741407976307,Golfo de México y Caribe
Campeche,Champotón,4_4_21,-90.66338416666667,19.481874444444443,La Noria,7.23,0.2874251497005988,0.8922155688622755,146,0.180692193122905,0.5155828348913735,Golfo de México y Caribe
Campeche,Champotón,4_4_24,-90.73243805555556,19.13168027777778,San Pablo Pixtún,7.92,0.2774566473988439,0.8393063583815029,147,0.37604747336621847,0.53459961875699,Golfo de México y Caribe
Campeche,Champotón,4_4_30,-90.4993586111111,19.449863333333333,San Antonio Teop,3.88,0.1111111111111111,0.6666666666666666,148,-0.5385110464515825,0.4455722749238887,Golfo de México y Caribe
Campeche,Champotón,4_4_33,-90.46925027777777,19.300733333333334,San Juan Carpizo,6.85,0.3090909090909091,0.7350649350649351,149,-0.33239122090085144,0.46563692927075273,Golfo de México y Caribe
Campeche,Champotón,4_4_36,-90.58435027777777,19.500454444444443,Sihochac,8.81,0.23330914368650219,0.8701015965166908,150,0.9524921087689624,0.5907133978588137,Golfo de México y Caribe
Campeche,Champotón,4_4_43,-90.73059916666666,19.218944722222222,Vicente Guerrero,8.13,0.2891566265060241,0.8283132530120482,151,0.3737920831911743,0.5343800686765519,Golfo de México y Caribe
Campeche,Champotón,4_4_52,-90.61297916666666,19.286588611111114,El Zapote,7.45,0.30666666666666664,0.7822222222222223,152,-0.028508053872440764,0.49521831811563477,Golfo de México y Caribe
Campeche,Champotón,4_4_62,-90.51199805555555,19.406600277777777,San José Carpizo Uno (San Fernando),7.3,0.3183098591549296,0.7549295774647887,153,-0.18472967583742023,0.48001098501286976,Golfo de México y Caribe
Campeche,Champotón,4_4_63,-90.57744055555555,19.39528222222222,San José Carpizo Dos,6.39,0.265993265993266,0.5993265993265994,154,-0.5249039806484358,0.446896849458559,Golfo de México y Caribe
Campeche,Champotón,4_4_82,-90.62300083333332,19.272996388888888,Ulumal,7.45,0.21839080459770116,0.9272030651340997,155,0.6502767721700835,0.5612943633191924,Golfo de México y Caribe
Campeche,Champotón,4_4_86,-90.70873388888889,19.04089,Dzacabuchén,5.65,0.29098360655737704,0.6270491803278688,156,-0.8541122659966941,0.4148501968088805,Golfo de México y Caribe
Campeche,Champotón,4_4_91,-90.80725083333333,19.0631525,Ley Federal de Reforma Agraria,6.84,0.3200966850828729,0.8888121546961326,157,-0.11809502220876633,0.48649750948478615,Golfo de México y Caribe
Campeche,Champotón,4_4_233,-90.66662083333334,19.464062777777777,El Porvenir,6.35,0.28536585365853656,0.7804878048780488,158,-0.3129716950425605,0.4675273154715246,Golfo de México y Caribe
Campeche,Champotón,4_4_239,-90.64017805555557,19.196181111111112,Nueva Esperanza Número 2 (Santo Domingo),6.34,0.3103448275862069,0.7887931034482759,159,-0.4217101844155562,0.45694220946515296,Golfo de México y Caribe
Campeche,Champotón,4_4_243,-90.55416666666666,19.321944444444444,San Antonio del Río,7.04,0.28426395939086296,0.6802030456852792,160,-0.2435471013975929,0.474285425570521,Golfo de México y Caribe
Campeche,Champotón,4_4_521,-90.77247194444445,19.29159777777778,Villamar,7.6,0.30957683741648107,0.7906458797327395,161,0.0246655090342697,0.5003944779404537,Golfo de México y Caribe
Campeche,Champotón,4_4_564,-90.51218805555555,19.49977277777778,Santo Domingo Kesté,6.16,0.33422999327505043,0.8679668235821565,162,-0.4597580883019827,0.45323845104179866,Golfo de México y Caribe
Campeche,Champotón,4_4_1680,-90.72978361111112,19.315459444444446,Los Almendros,6,0.15384615384615385,0.7692307692307693,163,0.176285231511006,0.5151538409252356,Golfo de México y Caribe
Campeche,Champotón,4_4_1726,-90.73763722222222,19.129721111111113,Rancho Solo,8.63,0.2,0.7,164,0.7501775520808818,0.5710191659311515,Golfo de México y Caribe
Campeche,Champotón,4_4_1754,-90.72243666666667,19.09202611111111,José María Morelos y Pavón,7.44,0.29320113314447593,0.7662889518413598,165,0.004579603492892492,0.4984392232683004,Golfo de México y Caribe
Campeche,Champotón,4_4_1787,-90.90267972222223,19.17951777777778,Punta Xen,6.1,0.3468208092485549,0.6358381502890174,166,-0.9496545378985558,0.4055496714659016,Golfo de México y Caribe
Campeche,Champotón,4_4_1812,-91.09002972222221,19.021320555555555,Nohan (San Pablito),5.93,0.11764705882352941,0.8235294117647058,167,0.42115035928702,0.5389901416658317,Golfo de México y Caribe
Campeche,Champotón,4_4_1916,-90.83488305555555,19.2369175,La Guadalupe [Playa],5.63,0.3333333333333333,0.4166666666666667,168,-1.4345912008032846,0.35834370039879376,Golfo de México y Caribe
Campeche,Champotón,4_4_2148,-90.71237361111112,19.328208055555557,Villa de las Flores,7.42,0.34134615384615385,0.5625,169,-0.5921048422483137,0.4403552076916386,Golfo de México y Caribe
Campeche,Champotón,4_4_2176,-90.71606027777779,19.089695555555554,Nissi,10.9,0.16666666666666666,1,170,2.2298125856932227,0.7150536634843003,Golfo de México y Caribe
Campeche,Champotón,4_4_2356,-90.71915861111111,19.323863055555556,Tres de Mayo,7.95,0.3699421965317919,0.49710982658959535,171,-0.6595793526631245,0.43378692768713295,Golfo de México y Caribe
Campeche,Hecelchakán,4_5_3,-90.24238194444445,20.24607361111111,Chunkanán,7.47,0.2872727272727273,0.38181818181818183,172,-0.6331844017884056,0.43635633392638545,Golfo de México y Caribe
Campeche,Hecelchakán,4_5_9,-90.22878055555556,20.167550833333333,Zodzil,8.03,0.23847695390781562,0.9979959919839679,173,0.8807617663089233,0.5837308355371286,Golfo de México y Caribe
Campeche,Palizada,4_7_29,-92.03724444444444,18.237728055555557,Ribera de la Corriente,7.21,0.2708333333333333,0.8802083333333334,174,0.2322045328003246,0.5205972835862726,Golfo de México y Caribe
Campeche,Palizada,4_7_86,-91.858705,18.372624722222223,El Porvenir,4.38,0.2727272727272727,0.8068181818181818,175,-0.8930243781165254,0.4110623123707643,Golfo de México y Caribe
Campeche,Palizada,4_7_108,-91.86508555555555,18.355973611111114,Puerto Arturo,5.89,0.26666666666666666,0.6666666666666666,176,-0.5839924414986009,0.44114490619119495,Golfo de México y Caribe
Campeche,Palizada,4_7_109,-91.95139722222223,18.284803333333336,Ribera San Eduardo,7.13,0.3611111111111111,0.8611111111111112,177,-0.2625298030276807,0.4724375618545505,Golfo de México y Caribe
Campeche,Palizada,4_7_110,-92.09526555555556,18.333492777777778,Santa Isabel,7.98,0.2967409948542024,0.9982847341337907,178,0.5842363581108015,0.5548656848673122,Golfo de México y Caribe
Campeche,Palizada,4_7_154,-92.06547027777778,18.333156666666667,San Juan,8.4,0.2616279069767442,0.9186046511627907,179,0.7589741385979578,0.5718754662284461,Golfo de México y Caribe
Campeche,Palizada,4_7_206,-92.05140888888889,18.340159999999997,Plan del Carmen,6.51,0.26785714285714285,0.9642857142857143,180,0.1503369226340151,0.5126279128777449,Golfo de México y Caribe
Campeche,Palizada,4_7_238,-92.00872722222222,18.265305555555557,Las Bodegas,7.88,0.3469387755102041,0.6938775510204082,181,-0.2272890473329258,0.47586805952767947,Golfo de México y Caribe
Campeche,Palizada,4_7_320,-91.918575,18.332005555555554,Lagón Dulce,7.01,0.2206896551724138,0.7931034482758621,182,0.24977577351044866,0.5223077491872995,Golfo de México y Caribe
Campeche,Palizada,4_7_454,-91.78748888888889,18.182895000000002,Tumbo de la Montaña 1,6.84,0.24,0.2,183,-0.9460513510659528,0.4059004222883913,Golfo de México y Caribe
Campeche,Palizada,4_7_521,-91.98876861111111,18.271676944444444,Ribera Gómez,6.83,0.3333333333333333,0.7878787878787878,184,-0.36274682902149075,0.4626819743904927,Golfo de México y Caribe
Campeche,Palizada,4_7_753,-91.80551027777777,18.205108055555556,El Popistal [Rancho],6.92,0.10344827586206896,0.6896551724137931,185,0.5989318838892511,0.5562962151154442,Golfo de México y Caribe
Campeche,Palizada,4_7_885,-91.88300555555554,18.536560555555557,Atastillo (Los Chanes),2.14,0.2222222222222222,0,186,-2.8518848051505334,0.22037780505967935,Golfo de México y Caribe
Campeche,Palizada,4_7_904,-91.84121583333332,18.415607777777776,Canales Uno,5.29,0.42592592592592593,0.5740740740740741,187,-1.7204582869637015,0.33051607994729937,Golfo de México y Caribe
Campeche,Palizada,4_7_923,-91.79793111111111,18.47667222222222,Ribera Boca Chica,5.54,0.13333333333333333,1,188,0.5204531410521865,0.5486567323806087,Golfo de México y Caribe
Campeche,Tenabo,4_8_1,-90.22576333333333,20.039676944444444,Tenabo,8.98,0.2638317329675354,0.8304755372656607,189,0.7955666103116759,0.57543754617234,Golfo de México y Caribe
Campeche,Tenabo,4_8_5,-90.22605666666666,19.965353333333333,Tinún,9.39,0.238929889298893,0.8487084870848709,190,1.090144163153672,0.6041130836191976,Golfo de México y Caribe
Campeche,Tenabo,4_8_16,-90.34583277777777,19.955244166666667,Xkuncheil,7.64,0.2,0.7523809523809524,191,0.49710307232685785,0.5463837290113431,Golfo de México y Caribe
Campeche,Tenabo,4_8_96,-90.28420527777777,19.908437222222222,Nachehá,7.78,0,1,192,1.941497341788672,0.6869877280682392,Golfo de México y Caribe
Campeche,Tenabo,4_8_98,-90.2438138888889,20.031246666666664,Santa Rosa,8.71,0.2768166089965398,0.889273356401384,193,0.7425769506900222,0.5702792883413641,Golfo de México y Caribe
Campeche,Tenabo,4_8_149,-90.25036472222222,20.057645555555556,Los Cocales,3.43,0.46153846153846156,0.7692307692307693,194,-2.1965568102075204,0.28417045415213055,Golfo de México y Caribe
Campeche,Escárcega,4_9_1116,-91.00357444444444,18.565181944444443,El Regalo,7.25,0.2,1,195,0.79690333804124025,0.5755676694138958,Golfo de México y Caribe
Campeche,Seybaplaya,4_12_1,-90.68830111111112,19.639196944444443,Seybaplaya,9.56,0.2298476090383605,0.8167104571728849,196,1.1366989300639374,0.6086449393189463,Golfo de México y Caribe
Campeche,Seybaplaya,4_12_16,-90.70118833333333,19.502635555555557,Haltunchén,6.15,0.3333333333333333,0.7333333333333333,197,-0.6959001946968633,0.4302512894289167,Golfo de México y Caribe
Campeche,Seybaplaya,4_12_55,-90.69850138888889,19.528409166666666,Villa Madero,8.02,0.27905464006938424,0.8100607111882047,198,0.3517815335126061,0.5322374602685302,Golfo de México y Caribe
Campeche,Seybaplaya,4_12_56,-90.62800472222222,19.628823333333333,Xkeulil,8.39,0.2323612417685795,0.8955785512699906,199,0.8554043340345734,0.581262426142984,Golfo de México y Caribe
Quintana Roo,Cozumel,23_1_1,-86.95758833333333,20.503784166666666,Cozumel,10.22,0.24446574143092087,0.7846638034051515,200,1.2403244059544776,0.6187323210141207,Golfo de México y Caribe
Quintana Roo,Cozumel,23_1_67,-86.99253694444444,20.367563333333333,El Cedral,8.68,0.2545454545454545,0.7090909090909091,201,0.5218641204308939,0.5487940836201057,Golfo de México y Caribe
Quintana Roo,Cozumel,23_1_165,-86.93079305555555,20.334318055555553,Buenavista,7.29,0,1,202,1.7706081454264546,0.6703525856336878,Golfo de México y Caribe
Quintana Roo,Cozumel,23_1_426,-86.90949222222223,20.47795222222222,La Estrella,8.18,0.27071823204419887,0.8397790055248618,203,0.4998913692025536,0.546655154687538,Golfo de México y Caribe
Quintana Roo,Cozumel,23_1_462,-86.91542666666668,20.48223611111111,Los Pinos,7.5,0.25,0.75,204,0.20414840008027002,0.5178661702456051,Golfo de México y Caribe
Quintana Roo,Cozumel,23_1_494,-86.88325583333332,20.456498333333332,Nuestra Señora de Guadalupe,9.75,0.2,0.2,205,0.26077215702977363,0.5233781878692229,Golfo de México y Caribe
Quintana Roo,Cozumel,23_1_498,-86.98315611111111,20.45476,Palmar Primero,8.36,0.3888888888888889,0.8888888888888888,206,0.08202709964233645,0.505978319694938,Golfo de México y Caribe
Quintana Roo,Cozumel,23_1_745,-86.93182083333333,20.540159722222224,Chichihualco,14.13,0.3333333333333333,0.5,207,1.6764814379633204,0.6611898578610925,Golfo de México y Caribe
Quintana Roo,Cozumel,23_1_754,-86.96948888888889,20.473206388888887,Huerto Familiar,8.89,0.20394736842105263,0.743421052631579,208,0.8983327837021442,0.5854412793994581,Golfo de México y Caribe
Quintana Roo,Cozumel,23_1_800,-86.95966333333334,20.458551944444444,Pueblo Nuevo,8.1,0.09090909090909091,0.2727272727272727,209,0.33683284018608395,0.530782285523779,Golfo de México y Caribe
Quintana Roo,Cozumel,23_1_845,-86.90922194444445,20.475160555555554,Nueva Esperanza,9.4,0.26666666666666666,0.6,210,0.5227976403339567,0.5488849567524249,Golfo de México y Caribe
Quintana Roo,Cozumel,23_1_854,-86.9086688888889,20.477400277777775,La Esperanza,7.29,0.46153846153846156,0.9230769230769231,211,-0.5795963631966919,0.44157284072574965,Golfo de México y Caribe
Quintana Roo,Cozumel,23_1_858,-86.92083333333333,20.481944444444444,San Fernando,8.7,0.2732673267326733,0.695049504950495,212,0.4142840367748052,0.5383217421682406,Golfo de México y Caribe
Quintana Roo,Cozumel,23_1_877,-86.91304972222223,20.472063055555555,La Selva,7.33,0.1,0.8,213,0.9526772404714854,0.5907314194324776,Golfo de México y Caribe
Quintana Roo,Cozumel,23_1_891,-86.91297166666668,20.482770833333333,Ranchitos,8.84,0.23915900131406045,0.7332457293035479,214,0.6940137075018019,0.5655519182985705,Golfo de México y Caribe
Quintana Roo,Cozumel,23_1_893,-86.90435972222222,20.495333055555555,Quinta la Bonita,8.38,0.4090909090909091,0.3181818181818182,215,-1.0123977753200946,0.39944195539296834,Golfo de México y Caribe
Quintana Roo,Cozumel,23_1_899,-86.9893775,20.449739722222223,Varadero,14,0.16666666666666666,1,216,3.310948317780721,0.8202964013355433,Golfo de México y Caribe
Quintana Roo,Cozumel,23_1_917,-86.90788583333334,20.486891944444444,Juan Leyenda Trigo,8.9,0,0.9,217,2.1560993646979343,0.7078780786218901,Golfo de México y Caribe
Quintana Roo,Cozumel,23_1_928,-87.00638888888889,20.37361111111111,Villas Pavo Real,7.25,0.5,1,218,-0.6427286653187586,0.4354272513006835,Golfo de México y Caribe
Quintana Roo,Cozumel,23_1_932,-86.91611111111112,20.498055555555556,Las Fincas,8.43,0.28937990021382753,0.7312900926585887,219,0.3065841203557596,0.5278377356426168,Golfo de México y Caribe
Quintana Roo,Cozumel,23_1_957,-86.8863888888889,20.45888888888889,El Refugio,8.14,0.46153846153846156,0.6153846153846154,220,-0.8247000881893618,0.4177133138317861,Golfo de México y Caribe
Quintana Roo,Cozumel,23_1_976,-86.88787166666667,20.459866944444443,San Carlos,5.4,0.16666666666666666,0.6666666666666666,221,-0.275004303407485,0.4712232364610478,Golfo de México y Caribe
Quintana Roo,Cozumel,23_1_987,-87.01279194444444,20.393506388888888,Mariposas,15.38,0,0.625,222,3.9320166983750156,0.8807540615780513,Golfo de México y Caribe
Quintana Roo,Cozumel,23_1_999,-86.90921027777779,20.471395555555553,La Esperanza,8.96,0.3225806451612903,0.6543778801843319,223,0.19673368503993954,0.5171443876903986,Golfo de México y Caribe
Quintana Roo,Cozumel,23_1_1014,-86.98447222222222,20.453388888888888,Cozumel,13,0.21052631578947367,0.631578947368421,224,2.1032944557424025,0.7027378052727377,Golfo de México y Caribe
Quintana Roo,Cozumel,23_1_1032,-86.90112194444445,20.493623333333336,San Isidro,7.64,0.15384615384615385,0.7692307692307693,225,0.7482409091314888,0.5708306441755705,Golfo de México y Caribe
Quintana Roo,Cozumel,23_1_1037,-87.01595,20.402894444444442,Las Glorias,9.42,0.25,0.8125,226,0.9837562061068991,0.5937567892690108,Golfo de México y Caribe
Quintana Roo,Cozumel,23_1_1047,-86.90393222222222,20.49653138888889,Santa Teresa,7.63,0.3448275862068966,0.6551724137931034,227,-0.3724680531728686,0.46173566560188095,Golfo de México y Caribe
Quintana Roo,Cozumel,23_1_1049,-86.9023888888889,20.494365555555557,Carlos Eduardo Gómez,5.25,0.38461538461538464,0.38461538461538464,228,-1.8696193078928998,0.3159960583095307,Golfo de México y Caribe
Quintana Roo,Felipe Carrillo Puerto,23_2_455,-87.51747305555556,19.4059675,María Elena,7.15,0.03571428571428571,0.4642857142857143,229,0.6075308208212788,0.5571332752906634,Golfo de México y Caribe
Quintana Roo,Felipe Carrillo Puerto,23_2_456,-87.46224777777778,19.321010555555556,Punta Herrero,7.6,0.25,0.55,230,-0.11297996270354385,0.4869954329652748,Golfo de México y Caribe
Quintana Roo,Felipe Carrillo Puerto,23_2_536,-87.61487,20.077825555555556,Chunyaxché,6.76,0.3597560975609756,0.4451219512195122,231,-1.117214816935351,0.389238581195209,Golfo de México y Caribe
Quintana Roo,Felipe Carrillo Puerto,23_2_587,-87.66984333333333,20.022299444444442,Cecilio Chí (Kilómetro Sesenta y Cuatro),7,0.4090909090909091,0.6818181818181818,232,-0.8536708092296775,0.414893170246373,Golfo de México y Caribe
Quintana Roo,Felipe Carrillo Puerto,23_2_707,-87.86260333333333,19.76577222222222,Santa Amalia,6.09,0.4823529411764706,0.5058823529411764,233,-1.8322546678912357,0.3196333046754504,Golfo de México y Caribe
Quintana Roo,Felipe Carrillo Puerto,23_2_738,-87.861459444444435,19.836201666666664,Tres Reyes,6.12,0.35384615384615387,0.3384615384615385,234,-1.499780856686567,0.35199783867106227,Golfo de México y Caribe
Quintana Roo,Felipe Carrillo Puerto,23_2_1072,-87.59236999999999,20.1106275,José María Pino Suárez,6.03,0.1282051282051282,0.2564102564102564,235,-0.5927803070271378,0.4402894548351417,Golfo de México y Caribe
Quintana Roo,Isla Mujeres,23_3_1,-86.74609166666667,21.256569166666665,Isla Mujeres,9.38,0.22696219826931835,0.785410657355397,236,1.0326815110665133,0.5985194040742904,Golfo de México y Caribe
Quintana Roo,Isla Mujeres,23_3_92,-86.80119638888888,21.23368388888889,Punta Sam,11.75,0.2037037037037037,0.6759259259259259,237,1.7781443019765826,0.6710861898654892,Golfo de México y Caribe
Quintana Roo,Isla Mujeres,23_3_93,-86.91110555555557,21.256741388888887,Rancho Viejo,11.24,0.43833017077798864,0.9962049335863378,238,1.038057793281775,0.5990427561780106,Golfo de México y Caribe
Quintana Roo,Isla Mujeres,23_3_177,-86.86708166666666,21.240538333333333,La Morena,7.26,0.32608695652173914,0.7717391304347826,239,-0.2064152168989709,0.47790001444241564,Golfo de México y Caribe
Quintana Roo,Isla Mujeres,23_3_180,-86.86385444444444,21.238994444444444,Centauros [Colonia],6.77,0.3707865168539326,0.4943820224719101,240,-1.0799611254704211,0.3928650273189204,Golfo de México y Caribe
Quintana Roo,Isla Mujeres,23_3_227,-86.8938888888889,21.248333333333335,San Francisco,10.26,0.04081632653061224,0.8775510204081632,241,2.3950251527959723,0.731136216648789,Golfo de México y Caribe
Quintana Roo,Isla Mujeres,23_3_286,-86.85498972222221,21.22479722222222,Zona Urbana Ejido Isla Mujeres,8.2,0.3098380323935213,0.6712657468506299,242,0.022552922953698776,0.5001888290691169,Golfo de México y Caribe
Quintana Roo,Isla Mujeres,23_3_352,-87.08748916666666,21.280075,Francisco May,6.43,0.31690140845070425,0.5035211267605634,243,-0.9238698876335676,0.4080596682293834,Golfo de México y Caribe
Quintana Roo,Isla Mujeres,23_3_395,-86.80283333333333,21.222101666666664,Residencial Arrecifes,10.64,0,0.7272727272727273,244,2.458927185304628,0.7373567351793205,Golfo de México y Caribe
Quintana Roo,Isla Mujeres,23_3_421,-86.8025336111111,21.22610861111111,Escénica,11.22,0.17142857142857143,0.4,245,1.2625512649404205,0.6208959859676392,Golfo de México y Caribe
Quintana Roo,Isla Mujeres,23_3_427,-86.88876,21.249547222222223,Mecades,6.1,0.3023255813953488,0.7209302325581395,246,-0.5863683816997634,0.44091362121529426,Golfo de México y Caribe
Quintana Roo,Isla Mujeres,23_3_435,-86.79787777777777,21.329485555555554,El Dorado,4.2,0,0.8,247,0.3409562389784091,0.5311836761774011,Golfo de México y Caribe
Quintana Roo,Isla Mujeres,23_3_448,-86.87083333333332,21.229999999999997,Tres de Septiembre,5.43,0.2222222222222222,0.7777777777777778,248,-0.3355826025892119,0.4653262654600554,Golfo de México y Caribe
Quintana Roo,Isla Mujeres,23_3_469,-86.88132805555554,21.243165555555557,La Providencia,7.61,0.25,0.3333333333333333,249,-0.4908297794791069,0.45021378933458184,Golfo de México y Caribe
Quintana Roo,Isla Mujeres,23_3_470,-86.80292416666667,21.32483472222222,San Germán,6.88,0.1111111111111111,0.1111111111111111,250,-0.4700387410609681,0.45223768489270055,Golfo de México y Caribe
Quintana Roo,Isla Mujeres,23_3_471,-86.86011527777777,21.239552222222223,Santa María Ecab,5.67,0,1,251,1.205627537045246,0.6153547677888448,Golfo de México y Caribe
Quintana Roo,Isla Mujeres,23_3_475,-86.86141333333333,21.242876111111112,La Victoria,7.47,0.3502824858757062,0.6459510357815442,252,-0.4706752305247352,0.4521757260731072,Golfo de México y Caribe
Quintana Roo,Isla Mujeres,23_3_476,-86.80653861111111,21.24086666666667,La Amada [Residencial],8.34,0.34285714285714286,0.5428571428571428,253,-0.31307434387778654,0.46751732316053557,Golfo de México y Caribe
Quintana Roo,Isla Mujeres,23_3_478,-86.86966416666667,21.24119888888889,El Alba [Colonia],8.17,0.3469387755102041,0.7653061224489796,254,-4.3493301338422274e-4,0.49795108516009395,Golfo de México y Caribe
Quintana Roo,Isla Mujeres,23_3_500,-86.86532416666667,21.24115,Minas de Rancho Viejo,7.57,0.3333333333333333,0.6595238095238095,255,-0.33057640940346456,0.46581359139096606,Golfo de México y Caribe
Quintana Roo,Isla Mujeres,23_3_535,-86.87190861111111,21.24313666666667,La Luna,5.7,0.3023255813953488,0.5581395348837209,256,-1.0123844133295832,0.39944325611074394,Golfo de México y Caribe
Quintana Roo,Isla Mujeres,23_3_555,-86.89687388888889,21.24855527777778,Cytzae,7.38,0.42857142857142855,0.7857142857142857,257,-0.631768021704151,0.43649421089546603,Golfo de México y Caribe
Quintana Roo,Isla Mujeres,23_3_557,-86.83845166666666,21.222496666666665,La Fortaleza,6.67,0.417910447761194,0.31343283582089554,258,-1.6594474593847126,0.3364551552570989,Golfo de México y Caribe
Quintana Roo,Othón P. Blanco,23_4_1,-88.29789888888888,18.493889444444445,Chetumal,11.05,0.2225430106254585,0.8019203918877346,259,1.6653639113640584,0.6601076265531131,Golfo de México y Caribe
Quintana Roo,Othón P. Blanco,23_4_8,-88.55312972222222,18.38207361111111,Allende,7.36,0.28753993610223644,0.8487752928647497,260,0.14902361790243365,0.5125000697388287,Golfo de México y Caribe
Quintana Roo,Othón P. Blanco,23_4_16,-88.25258277777777,18.556224444444446,Calderitas,9.46,0.24337957124842372,0.7375247703116555,261,0.8975184869482016,0.5853620119982755,Golfo de México y Caribe
Quintana Roo,Othón P. Blanco,23_4_37,-88.42350944444445,18.517701388888888,Huay-Pix,8.2,0.27919608908202065,0.7034220532319392,262,0.22619235930824977,0.5200120308932357,Golfo de México y Caribe
Quintana Roo,Othón P. Blanco,23_4_39,-88.48019805555556,18.4938325,Juan Sarabia,8.44,0.2835249042145594,0.7578544061302682,263,0.3849221380517513,0.5354635195432621,Golfo de México y Caribe
Quintana Roo,Othón P. Blanco,23_4_50,-88.26513305555555,18.690011944444446,Laguna Guerrero,6.68,0.30972222222222223,0.9277777777777778,264,-0.05553066104610327,0.49258781291778725,Golfo de México y Caribe
Quintana Roo,Othón P. Blanco,23_4_53,-87.70839305555556,18.716683333333332,Mahahual,9.65,0.2572078907435508,0.4965857359635812,265,0.4733655050852679,0.5440730047495437,Golfo de México y Caribe
Quintana Roo,Othón P. Blanco,23_4_67,-88.52927333333334,18.446758333333335,Palmar,7.32,0.26678765880217786,0.7186932849364791,266,0.005712208258065184,0.4985494762391831,Golfo de México y Caribe
Quintana Roo,Othón P. Blanco,23_4_73,-88.5310175,18.41945666666667,Ramonal,7.32,0.29029217719132894,0.6748350612629594,267,-0.1842719350756938,0.4800555436095015,Golfo de México y Caribe
Quintana Roo,Othón P. Blanco,23_4_75,-87.66745722222223,18.808625833333334,Río Indio,9.81,0.125,0.625,268,1.389613247170489,0.633264785268055,Golfo de México y Caribe
Quintana Roo,Othón P. Blanco,23_4_98,-88.39491166666667,18.495053333333335,Subteniente López,8.55,0.27161500815660683,0.734910277324633,269,0.4400558184123115,0.5408304862401793,Golfo de México y Caribe
Quintana Roo,Othón P. Blanco,23_4_104,-88.51943833333333,18.50574138888889,Ucum,7.73,0.2935560859188544,0.6485680190930787,270,-0.10317625520989665,0.4879497710627975,Golfo de México y Caribe
Quintana Roo,Othón P. Blanco,23_4_107,-88.37016722222222,18.5146525,Rancho de los Vallejo,9.88,0.058823529411764705,0.5294117647058824,271,1.5633548058100661,0.6501775898004386,Golfo de México y Caribe
Quintana Roo,Othón P. Blanco,23_4_110,-88.51995555555555,18.46557138888889,Sacxán,7.27,0.30092592592592593,0.7074074074074074,272,-0.19541062488876812,0.4789712521766948,Golfo de México y Caribe
Quintana Roo,Othón P. Blanco,23_4_111,-87.835195,18.273864444444442,Xcalak,8.21,0.31422018348623854,0.5665137614678899,273,-0.17935392917092546,0.4805342849838033,Golfo de México y Caribe
Quintana Roo,Othón P. Blanco,23_4_114,-88.46601583333333,18.55431111111111,Xul-Ha,8.65,0.27039726612558734,0.7761640324647586,274,0.5533822067010794,0.5518621994842455,Golfo de México y Caribe
Quintana Roo,Othón P. Blanco,23_4_136,-88.52910888888889,18.50042138888889,Carlos A. Madrazo,8.26,0.23167606355715017,0.6970784213223987,275,0.46399048904354795,0.5431603974548751,Golfo de México y Caribe
Quintana Roo,Othón P. Blanco,23_4_190,-88.25900583333333,18.586123055555554,San Fernando,6.56,0.18181818181818182,0.6363636363636364,276,0.0035071301320054316,0.4983348237656086,Golfo de México y Caribe
Quintana Roo,Othón P. Blanco,23_4_216,-88.46763333333334,18.537312500000002,Arco Iris,9.04,0.18181818181818182,0.45454545454545453,277,0.5484123440018357,0.5513784101304303,Golfo de México y Caribe
Quintana Roo,Othón P. Blanco,23_4_225,-88.21912722222223,18.657210555555555,Luis Echeverría Álvarez,7.71,0.2687427912341407,0.7946943483275664,278,0.2661071020248801,0.5238975160173053,Golfo de México y Caribe
Quintana Roo,Othón P. Blanco,23_4_264,-88.25452194444445,18.709197222222222,Raudales,6.86,0.3170731707317073,0.967479674796748,279,0.041845501364144666,0.5020668576198934,Golfo de México y Caribe
Quintana Roo,Othón P. Blanco,23_4_365,-88.37768555555554,18.517173888888887,Xóchitl,11.78,0.25,0.75,280,1.6968132172849446,0.6631690470208694,Golfo de México y Caribe
Quintana Roo,Othón P. Blanco,23_4_681,-88.35311222222222,18.509813333333334,Sac-Nicté,10.88,0.1111111111111111,1,281,2.4894360355946894,0.740326607359033,Golfo de México y Caribe
Quintana Roo,Othón P. Blanco,23_4_824,-88.37246888888889,18.515785555555556,Kilómetro Ocho,11.82,0.10526315789473684,0.47368421052631576,282,1.919001741907536,0.684797902636676,Golfo de México y Caribe
Quintana Roo,Othón P. Blanco,23_4_840,-88.41515000000001,18.523007777777778,Parque Industrial,6.36,0.21428571428571427,0.7142857142857143,283,-0.08490358942862933,0.4897285166148922,Golfo de México y Caribe
Quintana Roo,Othón P. Blanco,23_4_843,-88.37525722222222,18.51665638888889,Hermanos Martínez,9.67,0.18181818181818182,0.36363636363636365,284,0.6081253391388887,0.5571911484453386,Golfo de México y Caribe
Quintana Roo,Othón P. Blanco,23_4_919,-88.34889749999999,18.508524166666668,San Marcos,10.55,0.21428571428571427,1,285,1.8792358575995758,0.6809269080765713,Golfo de México y Caribe
Quintana Roo,Othón P. Blanco,23_4_926,-88.25888111111111,18.546886111111114,Missie,12.2,0,0.6,286,2.778980225707896,0.7685121740663671,Golfo de México y Caribe
Quintana Roo,Othón P. Blanco,23_4_959,-88.46763444444444,18.54042638888889,La Flor,5.57,0.125,0.5,287,-0.309103749668253,0.46790383911140576,Golfo de México y Caribe
Quintana Roo,Othón P. Blanco,23_4_1221,-88.26808777777778,18.54861055555556,Xkan-Lol,8.5,0.25,0.875,288,0.7729041801565946,0.5732314807125682,Golfo de México y Caribe
Quintana Roo,Othón P. Blanco,23_4_1297,-88.43507722222222,18.517215555555556,Las Tres Balbinas,7.5,0.2,0.3,289,-0.3479212778984792,0.46412516190528025,Golfo de México y Caribe
Quintana Roo,Othón P. Blanco,23_4_1319,-88.5200575,18.492004444444447,Ucum [Galeras],5,0.14285714285714285,1,290,0.2864236683105139,0.5258752242700034,Golfo de México y Caribe
Quintana Roo,Othón P. Blanco,23_4_1493,-88.40007194444445,18.518527499999998,Las Carmelitas,13.63,0.2,1,291,3.021950425369704,0.7921640137658085,Golfo de México y Caribe
Quintana Roo,Othón P. Blanco,23_4_1609,-88.46262194444445,18.523933055555556,El Naranjal,6.44,0.18181818181818182,0.6363636363636364,292,-0.03834328530363937,0.49426091133265726,Golfo de México y Caribe
Quintana Roo,Othón P. Blanco,23_4_1627,-88.36183805555555,18.5127125,El Porvenir,8.67,0.5,0.9166666666666666,293,-0.29416696140536885,0.4693578549623618,Golfo de México y Caribe
Quintana Roo,Othón P. Blanco,23_4_1675,-87.71647277777778,18.693572222222222,Punta Tam,8.77,0.20512820512820512,0.358974358974359,294,0.17418249018941745,0.5149491503881376,Golfo de México y Caribe
Quintana Roo,Othón P. Blanco,23_4_1729,-88.26074527777777,18.562709166666668,San Cristobal Uno,7,0.2727272727272727,0.8181818181818182,295,0.04070990296590299,0.5019563132349626,Golfo de México y Caribe
Quintana Roo,Othón P. Blanco,23_4_1821,-88.34280944444444,18.524134444444442,El Paraíso,10,0,0.7647058823529411,296,2.3016080167831827,0.7220425618333802,Golfo de México y Caribe
Quintana Roo,Othón P. Blanco,23_4_1873,-88.51469166666666,18.507675,Juan Sarabia,8.4,0.31746031746031744,0.6507936507936508,297,0.019694728230189015,0.4999105992140798,Golfo de México y Caribe
Quintana Roo,Othón P. Blanco,23_4_1895,-88.46702888888889,18.539907222222222,Manuel Vega Herrera,9.08,0.07692307692307693,0.15384615384615385,298,0.536493970153533,0.5502182206580981,Golfo de México y Caribe
Quintana Roo,Othón P. Blanco,23_4_1907,-88.33969888888889,18.546952500000003,Chiquiná,7.22,0.35555555555555557,0.7555555555555555,299,-0.3902618748319706,0.46000353294484186,Golfo de México y Caribe
Quintana Roo,Othón P. Blanco,23_4_1908,-87.70993222222222,18.735225,La Victoria [Rancho],6.38,0.3181818181818182,0.48484848484848486,300,-0.9803161528670561,0.402564928467911,Golfo de México y Caribe
Quintana Roo,Othón P. Blanco,23_4_1909,-88.24626472222222,18.569234444444444,Los Amigos [Rancho],5.53,0,0.5333333333333333,301,0.33546006474989565,0.5306486532322254,Golfo de México y Caribe
Quintana Roo,Othón P. Blanco,23_4_1911,-88.29415916666666,18.557468888888888,El Cielo,6.16,0.2962962962962963,0.6666666666666666,302,-0.6320148836434608,0.4364701802158824,Golfo de México y Caribe
Quintana Roo,Othón P. Blanco,23_4_1916,-88.33413444444444,18.545258888888892,Villas Bugambilias II (Chintok),8.86,0.3,0.8,303,0.5265153683692939,0.549246857543799,Golfo de México y Caribe
Quintana Roo,Othón P. Blanco,23_4_1942,-88.37925055555554,18.50973888888889,El Ciruelo,10,0.3333333333333333,0.5555555555555556,304,0.33390844810325254,0.5304976117125145,Golfo de México y Caribe
Quintana Roo,Othón P. Blanco,23_4_1987,-88.33461944444444,18.530350833333333,Las Palomas,5.57,0.08695652173913043,0.5652173913043478,305,-0.011757902110946516,0.4968488551319258,Golfo de México y Caribe
Quintana Roo,Othón P. Blanco,23_4_2018,-88.46581972222222,18.560480555555557,José Rafael,3.71,0.3,1,306,-0.9175612517636226,0.4086737799374273,Golfo de México y Caribe
Quintana Roo,Othón P. Blanco,23_4_2091,-88.35149888888888,18.51631777777778,San Isidro Dos,9.65,0.2608695652173913,0.6956521739130435,307,0.8061545816822668,0.5764682281323008,Golfo de México y Caribe
Quintana Roo,Othón P. Blanco,23_4_2198,-87.70085222222222,18.75765138888889,El Makulí,7.55,0.48717948717948717,0.48717948717948717,308,-1.379153504313026,0.3637402614277552,Golfo de México y Caribe
Quintana Roo,Othón P. Blanco,23_4_2428,-87.63346333333334,18.900224444444444,El Placer,10.45,0.2631578947368421,0.15789473684210525,309,0.12771311464854185,0.5104256070780702,Golfo de México y Caribe
Quintana Roo,Othón P. Blanco,23_4_2486,-87.75055916666666,18.65509611111111,Rancho Gabriela,9.17,0.25,0.75,310,0.7865666815596641,0.5745614516041779,Golfo de México y Caribe
Quintana Roo,Othón P. Blanco,23_4_2502,-88.33753499999999,18.499880555555556,El Esfuerzo,6.07,0.16666666666666666,0.9444444444444444,311,0.4475545563584566,0.5415604479725119,Golfo de México y Caribe
Quintana Roo,Othón P. Blanco,23_4_2549,-88.42581916666667,18.626331944444445,Akal-Ki [Centro Holístico],14.5,0.07692307692307693,0.8461538461538461,312,3.6452121112359377,0.8528351804579802,Golfo de México y Caribe
Quintana Roo,Othón P. Blanco,23_4_2564,-88.440425,18.586094444444445,Laguna Bonanza,13.14,0,0.5714285714285714,313,3.0565222358137567,0.795529393223373,Golfo de México y Caribe
Quintana Roo,Othón P. Blanco,23_4_2863,-88.29432861111111,18.55552861111111,El Edén,7.2,0.29605263157894735,0.5855263157894737,314,-0.4109505137342136,0.4579896054278188,Golfo de México y Caribe
Quintana Roo,Othón P. Blanco,23_4_2864,-88.350105,18.536576944444445,Fraternidad Antorchista,8.19,0.30175077239958803,0.7301750772399588,315,0.16155582997617401,0.5137200130547582,Golfo de México y Caribe
Quintana Roo,Othón P. Blanco,23_4_2865,-88.32781583333333,18.53574111111111,Mártires Antorchistas,7.74,0.29251101321585904,0.747136563876652,316,0.07880881320296002,0.5056650368517046,Golfo de México y Caribe
Quintana Roo,Othón P. Blanco,23_4_2866,-88.30159138888888,18.556139166666668,Paraíso,6.02,0.3048780487804878,0.8170731707317073,317,-0.45730401696071354,0.4534773416631813,Golfo de México y Caribe
Quintana Roo,Othón P. Blanco,23_4_2867,-87.71319333333334,18.737021944444447,Alcaldía Mahahual [Kilómetro Cincuenta y Cuatro],7.36,0.3125,0.375,318,-0.8046073729658287,0.4196692313898035,Golfo de México y Caribe
Quintana Roo,Othón P. Blanco,23_4_2919,-87.6544413888889,18.84481138888889,Las Artistas,7,0.16666666666666666,0.3333333333333333,319,-0.3036716125658586,0.46843262838741595,Golfo de México y Caribe
Quintana Roo,Othón P. Blanco,23_4_2934,-88.42738083333334,18.52681861111111,Mi Ranchito,10,0,0.2,320,1.307715191427367,0.6252924508466797,Golfo de México y Caribe
Quintana Roo,Othón P. Blanco,23_4_2978,-87.72271500000001,18.72323583333333,Divina Esperanza,9.64,0.3488372093023256,0.4186046511627907,321,-0.10707851641285321,0.4875699069619071,Golfo de México y Caribe
Quintana Roo,Othón P. Blanco,23_4_3039,-88.37410388888888,18.514108333333333,La Ranita Feliz,7.94,0.28,0.56,322,-0.12076680052287325,0.48623742626270516,Golfo de México y Caribe
Quintana Roo,Othón P. Blanco,23_4_3082,-88.37771388888888,18.511180555555555,Juan Borges,11.29,0.2222222222222222,1,323,2.0992279167183283,0.7023419496111676,Golfo de México y Caribe
Quintana Roo,Othón P. Blanco,23_4_3085,-88.43071111111112,18.520652777777777,Los Tres Hermanos,7.67,0.3076923076923077,0.6153846153846154,324,-0.2503413930764083,0.47362403788642526,Golfo de México y Caribe
Quintana Roo,Othón P. Blanco,23_4_3086,-88.34773333333332,18.53317222222222,Pedro García,6.71,0.34615384615384615,0.6923076923076923,325,-0.6343268802050874,0.4362451198087322,Golfo de México y Caribe
Quintana Roo,Othón P. Blanco,23_4_3102,-87.74211833333334,18.68658361111111,Hermanos Flores Magón,9.8,0.16339869281045752,0.5620915032679739,326,1.0911389681468997,0.6042099225248114,Golfo de México y Caribe
Quintana Roo,Othón P. Blanco,23_4_3117,-88.4164913888889,18.52775722222222,Juan Lerdo Olaya,5.09,0.26666666666666666,0.4,327,-1.3323334897098142,0.368297937561133,Golfo de México y Caribe
Quintana Roo,Othón P. Blanco,23_4_3126,-88.38184666666666,18.511052222222222,Rio Hondo,11.7,0.16666666666666666,0.8333333333333334,328,2.215478931114036,0.7136583594474843,Golfo de México y Caribe
Quintana Roo,Othón P. Blanco,23_4_3130,-88.41467472222223,18.5348225,UAIM [Unidad Agrícola Industrial de la Mujer],4.5,0.25,1,329,-0.4021073495856261,0.458850439806559,Golfo de México y Caribe
Quintana Roo,Othón P. Blanco,23_4_3178,-87.65415,18.84133222222222,Playa Vanesa,5.9,0.23076923076923078,0.38461538461538464,330,-0.9046567353805917,0.40992996507171575,Golfo de México y Caribe
Quintana Roo,Othón P. Blanco,23_4_3212,-88.33005888888889,18.54868527777778,Villas Bugambilias Uno,4.92,0,0.8333333333333334,331,0.6507260164223103,0.5613380948264075,Golfo de México y Caribe
Quintana Roo,Othón P. Blanco,23_4_3238,-88.35170805555555,18.520915833333333,Las Palmas,10.5,0.45454545454545453,0.5454545454545454,332,-0.09116228232197282,0.48911926658650423,Golfo de México y Caribe
Quintana Roo,Benito Juárez,23_5_1,-86.8248111111111,21.16141611111111,Cancún,10.6,0.23370803456807349,0.7279277495311077,333,1.324618011459607,0.6269378492964793,Golfo de México y Caribe
Quintana Roo,Benito Juárez,23_5_2,-86.84748083333334,21.08811833333333,Alfredo V. Bonfil,9.1,0.2545353479205619,0.6385870938400121,334,0.5443010515299421,0.5509781979618676,Golfo de México y Caribe
Quintana Roo,Benito Juárez,23_5_16,-87.07397,21.051313888888888,Candelaria (Santa Julia),7.57,0.2222222222222222,0.2222222222222222,335,-0.5670382744873874,0.44279530299271597,Golfo de México y Caribe
Quintana Roo,Benito Juárez,23_5_202,-86.94286166666667,21.122219444444443,Las Arboledas,12.61,0.17567567567567569,0.6081081081081081,336,2.093211816032034,0.701756314626935,Golfo de México y Caribe
Quintana Roo,Benito Juárez,23_5_207,-86.96636194444444,21.109409444444445,Huertos del Ramonal,8.92,0.32608695652173914,0.6811594202898551,337,0.21309356031396348,0.5187369333936276,Golfo de México y Caribe
Quintana Roo,Benito Juárez,23_5_237,-86.97416361111111,21.106921944444444,Bosques del Caribe,9.91,0.2,0.8363636363636363,338,1.436584512244555,0.6378371848197618,Golfo de México y Caribe
Quintana Roo,Benito Juárez,23_5_492,-87.05115944444444,21.06257638888889,Emiliano Zapata,6.49,0.31746031746031744,0.5079365079365079,339,-0.8978556048206274,0.4105920184840402,Golfo de México y Caribe
Quintana Roo,Benito Juárez,23_5_531,-86.8513711111111,21.055310555555558,Lagos del Sol,12.85,0.21645445641527913,0.7659157688540646,340,2.2589689303078635,0.7178918765244469,Golfo de México y Caribe
Quintana Roo,Benito Juárez,23_5_784,-86.94073305555555,21.122745000000002,Campestre Santa María,14.13,0,0.4666666666666667,341,3.2174052679777327,0.8111904894911413,Golfo de México y Caribe
Quintana Roo,Benito Juárez,23_5_952,-86.99316,21.095795,Eben Ezer,9.32,0.2647058823529412,0.6470588235294118,342,0.5871311249889295,0.5551474748245335,Golfo de México y Caribe
Quintana Roo,Benito Juárez,23_5_1140,-87.00464944444444,21.070595555555556,Colonia Chiapaneca Siglo XXI,6.1,0.3238434163701068,0.6690391459074733,343,-0.7809568694289322,0.4219714804690912,Golfo de México y Caribe
Quintana Roo,Benito Juárez,23_5_1156,-87.00099555555556,21.078058055555555,El Porvenir,7,0.3296,0.6336,344,-0.557076847752905,0.4437649942084686,Golfo de México y Caribe
Quintana Roo,Benito Juárez,23_5_1415,-86.87122694444444,21.005193055555555,Cancún Country Club,17.6,0.16666666666666666,1,345,4.566460780850074,0.9425137743240833,Golfo de México y Caribe
Quintana Roo,Benito Juárez,23_5_1482,-86.8090111111111,21.030730833333333,Península Resort,0,0,0,346,-2.5318231371899085,0.2515340837929453,Golfo de México y Caribe
Quintana Roo,Benito Juárez,23_5_1503,-87.04540444444444,21.06703222222222,Tres Marías,8.23,0.23529411764705882,0.29411764705882354,347,-0.2730527719126238,0.4714132075363036,Golfo de México y Caribe
Quintana Roo,Benito Juárez,23_5_1521,-86.96150555555556,21.11012777777778,Del Parque,13,0.4,0.8,348,1.4904773664457167,0.643083363776216,Golfo de México y Caribe
Quintana Roo,Benito Juárez,23_5_1523,-87.04883138888889,21.083460833333334,Sac-Nicté,6.31,0.10344827586206896,0.6896551724137931,349,0.3861922720913885,0.5355871602479417,Golfo de México y Caribe
Quintana Roo,Benito Juárez,23_5_1541,-87.05780416666667,21.080798333333334,Gregorio Pech [Rancho],2.5,0.25,0.5,350,-1.9796235459635063,0.3052877384878956,Golfo de México y Caribe
Quintana Roo,Benito Juárez,23_5_1548,-87.04775055555555,21.075397777777777,La Conchita [Rancho],9.36,0.47619047619047616,0.14285714285714285,351,-1.30118967657295,0.37132961995250346,Golfo de México y Caribe
Quintana Roo,Benito Juárez,23_5_1574,-86.8631575,20.967276666666667,Ninguno,7,0.14285714285714285,1,352,0.983930592237932,0.5937737648191924,Golfo de México y Caribe
Quintana Roo,Benito Juárez,23_5_1617,-87.04749166666666,21.066569722222223,Éxito Familiar [Templo],7.33,0,0.16666666666666666,353,0.31787616315423306,0.5289369551622142,Golfo de México y Caribe
Quintana Roo,Benito Juárez,23_5_1682,-86.99306888888889,21.084045,La Ceiba,6.67,0.3333333333333333,0.5555555555555556,354,-0.8274405802358988,0.41744654169811496,Golfo de México y Caribe
Quintana Roo,Benito Juárez,23_5_1821,-86.98878361111112,21.084543888888888,Don Sebastián,5.64,0.15384615384615385,0.46153846153846156,355,-0.49081018245775215,0.45021569699901276,Golfo de México y Caribe
Quintana Roo,Benito Juárez,23_5_1822,-87.02379611111111,21.087819166666666,El Roble,7.78,0.30303030303030304,0.6363636363636364,356,-0.1526831425793396,0.48313054234376035,Golfo de México y Caribe
Quintana Roo,Lázaro Cárdenas,23_7_8,-87.33571388888889,21.43259888888889,Chiquilá,7.44,0.31934227607096494,0.7598442232799654,357,-0.1322086581632858,0.4851236230755178,Golfo de México y Caribe
Quintana Roo,Lázaro Cárdenas,23_7_9,-87.19207805555556,20.845832777777776,Delirios,7.69,0.3194444444444444,0.6944444444444444,358,-0.16061539912260203,0.48235837991200026,Golfo de México y Caribe
Quintana Roo,Lázaro Cárdenas,23_7_11,-87.25264805555555,20.772437222222223,Héroe de Nacozari,6.36,0.4520547945205479,0.6917808219178082,359,-1.26551254173227,0.37480259678407235,Golfo de México y Caribe
Quintana Roo,Lázaro Cárdenas,23_7_12,-87.37872666666667,21.52319861111111,Holbox,10.09,0.19500271591526344,0.5426398696360674,360,1.0063816925402427,0.5959592584565415,Golfo de México y Caribe
Quintana Roo,Lázaro Cárdenas,23_7_23,-87.4314825,21.23545388888889,San Ángel,7.44,0.2738001573564123,0.8819826907946499,361,0.30130361504930575,0.5273237069048781,Golfo de México y Caribe
Quintana Roo,Lázaro Cárdenas,23_7_26,-87.33698666666666,21.399546944444445,San Eusebio,6.57,0.3,1,362,0.0798736494525853,0.5057686929227675,Golfo de México y Caribe
Quintana Roo,Lázaro Cárdenas,23_7_38,-87.42917055555556,21.351985000000003,Solferino,8.11,0.2790091264667536,0.529335071707953,363,-0.11069457696195628,0.48721790295248585,Golfo de México y Caribe
Quintana Roo,Lázaro Cárdenas,23_7_298,-87.34712972222222,20.71617611111111,Laguna Costa Rica,6.13,0.1111111111111111,0.8888888888888888,364,0.6372994751669683,0.5600310933837149,Golfo de México y Caribe
Quintana Roo,Lázaro Cárdenas,23_7_378,-87.10116749999999,21.3155825,Chechen Ha,6,0,0.5,365,0.4407069070428082,0.5408938662099866,Golfo de México y Caribe
Quintana Roo,Lázaro Cárdenas,23_7_383,-87.34608944444444,21.38963,Paraíso,8.83,0.45454545454545453,1,366,0.12642786569905295,0.5103004950183627,Golfo de México y Caribe
Quintana Roo,Lázaro Cárdenas,23_7_446,-87.13141694444444,21.363583333333334,Zarco Grande,3.6,0,0.2,367,-0.924306965140371,0.4080171210892751,Golfo de México y Caribe
Quintana Roo,Lázaro Cárdenas,23_7_467,-87.28527777777778,20.71861111111111,San Carlos,4.25,0.1111111111111111,0.7777777777777778,368,-0.21391464942490732,0.47716998509648295,Golfo de México y Caribe
Quintana Roo,Lázaro Cárdenas,23_7_473,-87.24906111111112,20.689286111111112,Jungla Maya,6.67,0.35714285714285715,0.5714285714285714,369,-0.913760286139059,0.4090437834595893,Golfo de México y Caribe
Quintana Roo,Lázaro Cárdenas,23_7_475,-87.26711861111112,20.782251111111112,Eben Ezer,7.11,0.4807692307692308,0.8269230769230769,370,-0.9038886415239661,0.4100047348698076,Golfo de México y Caribe
Quintana Roo,Lázaro Cárdenas,23_7_487,-87.27227666666667,20.740133055555557,La Unión,5.18,0.10526315789473684,0.47368421052631576,371,-0.3967212455314926,0.4593747480133687,Golfo de México y Caribe
Quintana Roo,Solidaridad,23_8_1,-87.07549999999999,20.6281425,Playa del Carmen,10.82,0.24156724885388042,0.6878783506371704,372,1.2931415003024527,0.623873780545567,Golfo de México y Caribe
Quintana Roo,Solidaridad,23_8_179,-87.19223166666667,20.522640555555554,Paa Mul,11.77,0.14634146341463414,0.6585365853658537,373,2.0297821990284337,0.6955817832002239,Golfo de México y Caribe
Quintana Roo,Solidaridad,23_8_232,-87.1240461111111,20.58413694444444,El Ranchito,7.5,0.14285714285714285,1,374,1.1583073232197865,0.6107483999564897,Golfo de México y Caribe
Quintana Roo,Solidaridad,23_8_241,-87.30276833333333,20.42891777777778,San Antonio,6.8,0,0,375,-0.16029959583668663,0.4823891216601876,Golfo de México y Caribe
Quintana Roo,Solidaridad,23_8_265,-87.24872805555556,20.490584444444444,San José,8.15,0.20689655172413793,0.7844827586206896,376,0.698372123652115,0.5659761866256088,Golfo de México y Caribe
Quintana Roo,Solidaridad,23_8_272,-87.23800833333334,20.50084222222222,San Mateo,6.9,0.2857142857142857,0.42857142857142855,377,-0.7422086859780139,0.42574340733461347,Golfo de México y Caribe
Quintana Roo,Solidaridad,23_8_285,-87.28824833333333,20.443587222222224,Grand Palladium,14.34,0,0.9936305732484076,378,4.218109743067413,0.9086036778750632,Golfo de México y Caribe
Quintana Roo,Solidaridad,23_8_308,-87.2351913888889,20.512781944444445,Puerto Aventuras,9.76,0.2911093627065303,0.7300026226068712,379,0.759860955090113,0.5719617930353734,Golfo de México y Caribe
Quintana Roo,Solidaridad,23_8_314,-86.95426833333333,20.782248055555556,Tigre Grande,6.43,0.2222222222222222,1,380,0.40428609157470263,0.5373484960766385,Golfo de México y Caribe
Quintana Roo,Solidaridad,23_8_331,-87.39263472222223,20.456149444444442,Uxuxubi,7.6,0.16666666666666666,0.9166666666666666,381,0.9322579491379057,0.5887437114498929,Golfo de México y Caribe
Quintana Roo,Solidaridad,23_8_370,-87.10932638888889,20.730272222222222,Arbolada II,6.13,0.3258426966292135,0.6292134831460674,382,-0.8501822634087184,0.41523276138411885,Golfo de México y Caribe
Quintana Roo,Solidaridad,23_8_483,-87.31121722222223,20.425791944444445,San Martín,11.76,0.11458333333333333,0.6666666666666666,383,2.193003826376149,0.711470529107679,Golfo de México y Caribe
Quintana Roo,Solidaridad,23_8_555,-87.23692944444444,20.516060833333334,San Ángel,8.96,0.30434782608695654,0.42028985507246375,384,-0.12777041412656964,0.4855556622171473,Golfo de México y Caribe
Quintana Roo,Solidaridad,23_8_572,-87.22005388888888,20.524845,El Sauce,8.12,0.32122370936902483,0.6042065009560229,385,-0.17801015356449063,0.4806650942981952,Golfo de México y Caribe
Quintana Roo,Solidaridad,23_8_578,-87.32071194444444,20.52572861111111,La Selva,10.88,0,0.875,386,2.802630755763555,0.7708144257271133,Golfo de México y Caribe
Quintana Roo,Solidaridad,23_8_626,-87.13599083333334,20.659265277777777,El Sol,7.33,0.25,0.25,387,-0.7351489609040225,0.4264306335294496,Golfo de México y Caribe
Quintana Roo,Solidaridad,23_8_640,-87.04486972222222,20.769500277777777,Vida y Esperanza,5,0.24752475247524752,0.7425742574257426,388,-0.6689265476264517,0.4328770286245328,Golfo de México y Caribe
Quintana Roo,Solidaridad,23_8_642,-87.28221277777777,20.45962111111111,Santa Teresita,10.55,0.19230769230769232,0.2692307692307692,389,0.6985360054364462,0.5659921396342413,Golfo de México y Caribe
Quintana Roo,Solidaridad,23_8_646,-87.347635,20.579355,San Carlos,4.55,0.18518518518518517,0.3333333333333333,390,-1.2469837674238595,0.37660627312125133,Golfo de México y Caribe
Quintana Roo,Solidaridad,23_8_647,-87.3716961111111,20.5700125,Pacto Obrero,8.23,0.125,0.625,391,0.8385827772678287,0.5796249382341957,Golfo de México y Caribe
Quintana Roo,Solidaridad,23_8_818,-86.95805555555556,20.76,Playa Paraíso,9.5,0,0.4090909090909091,392,1.5013423380157056,0.6441410102129809,Golfo de México y Caribe
Quintana Roo,Solidaridad,23_8_829,-87.09717333333333,20.73575888888889,Nuevo Noh-Bec,7.17,0.37598647125140927,0.6939120631341601,393,-0.6142365714099419,0.4382008031139131,Golfo de México y Caribe
Quintana Roo,Solidaridad,23_8_835,-87.29545916666666,20.42823361111111,Grand Sirenis,13.41,0.19753086419753085,0.9506172839506173,394,2.87015899076612,0.7773879355307436,Golfo de México y Caribe
Quintana Roo,Solidaridad,23_8_839,-87.13783833333333,20.66274,El Regalo de Mis Padres,8.01,0.29473684210526313,0.30526315789473685,395,-0.6154143894375087,0.43808614887556657,Golfo de México y Caribe
Quintana Roo,Solidaridad,23_8_868,-87.15076722222223,20.662770277777778,Tres Reyes,6,0.3333333333333333,0,396,-2.038893480252097,0.29951812975916503,Golfo de México y Caribe
Quintana Roo,Solidaridad,23_8_885,-87.16334722222223,20.675244444444445,Ninguno,8.33,0.3684210526315789,0.631578947368421,397,-0.28308526602811823,0.4704365982939539,Golfo de México y Caribe
Quintana Roo,Solidaridad,23_8_899,-87.03950916666666,20.764007777777778,Los Arcos,9.07,0.2786885245901639,0.7049180327868853,398,0.5346765099303284,0.550041300698699,Golfo de México y Caribe
Quintana Roo,Solidaridad,23_8_909,-87.10651194444443,20.740614166666667,Paraíso,6.48,0.3958333333333333,0.8333333333333334,399,-0.7047330317920799,0.4293914603331752,Golfo de México y Caribe
Quintana Roo,Solidaridad,23_8_916,-87.05432,20.792877500000003,Yaman Ek,7.29,0.3,0.9,400,0.15497428757636333,0.5130793353665806,Golfo de México y Caribe
Quintana Roo,Solidaridad,23_8_920,-87.11218055555555,20.607147222222224,El Pitayo,9.29,0.2553191489361702,1,401,1.242896343090044,0.6189826852354621,Golfo de México y Caribe
Quintana Roo,Solidaridad,23_8_924,-87.13242055555556,20.72509861111111,Los Pájaros,8.29,0.3577981651376147,0.5779816513761468,402,-0.34039081006160155,0.46485821237150005,Golfo de México y Caribe
Quintana Roo,Solidaridad,23_8_926,-87.12887222222221,20.722846666666666,Valle Encantado,5.32,0.36363636363636365,0.36363636363636365,403,-1.781456464863851,0.32457823601557245,Golfo de México y Caribe
Quintana Roo,Solidaridad,23_8_927,-87.08312777777778,20.75380277777778,Jacinto Canek (Campesinos Unidos),8.63,0.23776223776223776,0.7272727272727273,404,0.6169656378475505,0.5580517038889422,Golfo de México y Caribe
Quintana Roo,Solidaridad,23_8_928,-87.12374166666666,20.611797222222222,Torres de la Paz,6.9,0.3081395348837209,0.45930232558139533,405,-0.7957354252978359,0.4205328676890586,Golfo de México y Caribe
Quintana Roo,Solidaridad,23_8_929,-87.11833083333333,20.65731111111111,Paseos del Parque,11.52,0.3695652173913043,0.391304347826087,406,0.4010599392222379,0.5370344475291513,Golfo de México y Caribe
Quintana Roo,Solidaridad,23_8_945,-87.01614777777777,20.776728055555555,Santa Cecilia,6.97,0.1891891891891892,0.35135135135135137,407,-0.39050265130343187,0.45998009465276185,Golfo de México y Caribe
Quintana Roo,Solidaridad,23_8_946,-87.01317472222222,20.798711111111114,Santa Cecilia,7.49,0.24210526315789474,0.4105263157894737,408,-0.3589340615357333,0.4630531267602479,Golfo de México y Caribe
Quintana Roo,Solidaridad,23_8_949,-87.24113333333334,20.52097583333333,Belfast,8.94,0.3586206896551724,0.9517241379310345,409,0.5401455388387149,0.5505736811932322,Golfo de México y Caribe
Quintana Roo,Solidaridad,23_8_950,-87.24978527777778,20.519503055555553,Monte Sinahí,7.94,0.37697516930022573,0.6388261851015802,410,-0.4473931104398294,0.4544421150083668,Golfo de México y Caribe
Quintana Roo,Tulum,23_9_1,-87.46320472222223,20.210776666666668,Tulum,9.75,0.27293701683945587,0.5836879007610715,411,0.5860617655844054,0.5550433784487142,Golfo de México y Caribe
Quintana Roo,Tulum,23_9_5,-87.3224361111111,20.400935277777776,Akumal,8.65,0.28551532033426186,0.5933147632311978,412,0.15901598637063324,0.51347277296563,Golfo de México y Caribe
Quintana Roo,Tulum,23_9_7,-87.32462444444444,20.381918055555555,Akumal Sur,10.23,0.13333333333333333,0.8666666666666667,413,1.9214377383418588,0.6850350337632636,Golfo de México y Caribe
Quintana Roo,Tulum,23_9_16,-87.3286111111111,20.3725,Aventuras Akumal,13.27,0,0.5333333333333333,414,3.034811860349004,0.7934160051575867,Golfo de México y Caribe
Quintana Roo,Tulum,23_9_18,-87.3346661111111,20.370382222222222,Gran Bahía Príncipe,14.05,0.3448275862068966,0.7586206896551724,415,2.048600056589412,0.6974136002343239,Golfo de México y Caribe
Quintana Roo,Tulum,23_9_20,-87.37416666666665,20.28611111111111,Bahías de Punta Solimán,10.18,0.21428571428571427,0.6607142857142857,416,1.1530479275101897,0.6102364261242564,Golfo de México y Caribe
Quintana Roo,Tulum,23_9_21,-87.39306666666667,20.2825,Balam Canché,12.4,0,0.8,417,3.2007346270808235,0.8095676924290757,Golfo de México y Caribe
Quintana Roo,Tulum,23_9_53,-87.35383944444443,20.342556944444443,Chan Chemuyil,14.08,0.07874015748031496,0.6929133858267716,418,3.220309847463431,0.8114732346528345,Golfo de México y Caribe
Quintana Roo,Tulum,23_9_55,-87.35434305555555,20.347011666666667,Ciudad Chemuyil,9.48,0.22262773722627738,0.9288321167883211,419,1.3407813817178493,0.6285112662952832,Golfo de México y Caribe
Quintana Roo,Tulum,23_9_73,-87.5023188888889,20.28777777777778,Las Dos Hermanas,11.23,0.2777777777777778,0.7222222222222222,420,1.322810149609509,0.6267618636869817,Golfo de México y Caribe
Quintana Roo,Tulum,23_9_76,-87.38370777777779,20.32396333333333,Dos Palmas,8.5,0.3125,0.5,421,-0.18702610821458493,0.47978743969520976,Golfo de México y Caribe
Quintana Roo,Tulum,23_9_92,-87.59008472222222,20.36439027777778,Francisco Uh May,7.96,0.3641304347826087,0.6288819875776398,422,-0.39628104363610056,0.45941759929587045,Golfo de México y Caribe
Quintana Roo,Tulum,23_9_104,-87.36787555555554,20.316052222222222,Jacinto Pat,8.3,0.27,0.59,423,0.105572735576423,0.5082703604781681,Golfo de México y Caribe
Quintana Roo,Tulum,23_9_106,-87.47648,19.800345555555555,Javier Rojo Gómez (Punta Allen),7.9,0.22137404580152673,0.5928753180661578,424,0.20447689676999786,0.5178981476282556,Golfo de México y Caribe
Quintana Roo,Tulum,23_9_115,-87.52908555555555,20.305494444444445,El Pequeño Paraíso,9.33,0.20588235294117646,0.6470588235294118,425,0.8728994445811155,0.5829654808828113,Golfo de México y Caribe
Quintana Roo,Tulum,23_9_122,-87.46825972222223,20.257643055555555,Kirabo,16.33,0,0.16666666666666666,426,3.456657320827614,0.8344803876335644,Golfo de México y Caribe
Quintana Roo,Tulum,23_9_133,-87.57595416666666,20.350775833333334,Macario Gómez,7.54,0.3733031674208145,0.6142533936651584,427,-0.6125219591134031,0.43836771138184416,Golfo de México y Caribe
Quintana Roo,Tulum,23_9_223,-87.50565583333334,20.288801944444447,Alfa y Mega,9.17,0.25,0.5,428,0.3465620453344332,0.5317293712194407,Golfo de México y Caribe
Quintana Roo,Tulum,23_9_240,-87.39507916666668,20.261858888888888,Tankah Tres,8.8,0.1774193548387097,0.9354838709677419,429,1.33228101864536,0.627683801754128,Golfo de México y Caribe
Quintana Roo,Tulum,23_9_245,-87.48385916666666,20.268550833333332,Tres Hermanos,8.79,0.2222222222222222,0.6111111111111112,430,0.5428926054586967,0.5508410933262013,Golfo de México y Caribe
Quintana Roo,Tulum,23_9_342,-87.48072333333333,20.288575833333336,Balam Luum,13,0.45454545454545453,0.45454545454545453,431,0.6207196866872157,0.5584171403149041,Golfo de México y Caribe
Quintana Roo,Tulum,23_9_353,-87.45833333333334,20.228888888888886,Cenote Calavera,10,0,0.8571428571428571,432,2.464298806647974,0.7378796335722746,Golfo de México y Caribe
Quintana Roo,Tulum,23_9_383,-87.48400166666667,20.281654166666666,India Blanca,9.64,0.2631578947368421,0.3684210526315789,433,0.21575303043707983,0.5189958184796378,Golfo de México y Caribe
Quintana Roo,Tulum,23_9_385,-87.496775,20.283869722222224,La Ceiba,10.87,0.3111111111111111,0.5111111111111111,434,0.665740321227934,0.5627996564951037,Golfo de México y Caribe
Quintana Roo,Tulum,23_9_407,-87.52182638888888,20.1907125,La Unión,9.05,0.40540540540540543,0.16216216216216217,435,-1.0356445469208926,0.39717900744216234,Golfo de México y Caribe
Quintana Roo,Tulum,23_9_465,-87.54845666666667,20.176515555555557,La Unión,8.71,0.3225806451612903,0.1935483870967742,436,-0.7015231343223811,0.42970392655541406,Golfo de México y Caribe
Quintana Roo,Tulum,23_9_469,-87.52509666666667,20.302096388888888,Yolis,12.1,0,0.6,437,2.7441048795115255,0.7651172470389077,Golfo de México y Caribe
Quintana Roo,Tulum,23_9_474,-87.50578055555556,20.28989055555556,Cafeto Cimarrón,11.78,0.4,0.26666666666666666,438,0.12632158556949857,0.5102901492204379,Golfo de México y Caribe
Quintana Roo,Tulum,23_9_499,-87.48328361111112,20.28279611111111,India Blanca,8.92,0.4230769230769231,0.6153846153846154,439,-0.36810418229869457,0.4621604649168944,Golfo de México y Caribe
Quintana Roo,Tulum,23_9_507,-87.32274888888888,20.378313055555555,Punta Sur,7.1,0.375,0.9375,440,-0.20519617560295678,0.4780186815438151,Golfo de México y Caribe
Quintana Roo,Tulum,23_9_515,-87.50218305555556,20.287457222222223,Paraíso [Rancho],9.67,0.3333333333333333,0.5555555555555556,441,0.21881980565522835,0.5192943525218984,Golfo de México y Caribe
Quintana Roo,Tulum,23_9_519,-87.38738888888889,20.290083333333335,Yax'muul [Rancho],13.6,0,0.4,442,2.9152313634769045,0.7817754881430096,Golfo de México y Caribe
Quintana Roo,Tulum,23_9_523,-87.51681555555555,20.297462222222222,Árboles Tulum,4.81,0.2,0.75,443,-0.4940597453754411,0.44989936955914805,Golfo de México y Caribe
Quintana Roo,Tulum,23_9_545,-87.50722777777777,20.201910277777777,Cristal [Colonia],7.76,0.3494318181818182,0.2528409090909091,444,-1.0573356782646435,0.39506749268785907,Golfo de México y Caribe
Quintana Roo,Tulum,23_9_548,-87.47676638888889,20.245591666666666,Cachito de Cielo,13.5,0.1111111111111111,0.4444444444444444,445,2.4253820254390934,0.7340912946234988,Golfo de México y Caribe
Quintana Roo,Tulum,23_9_579,-87.49156944444445,20.22656972222222,Marités,9.29,0.3333333333333333,0.4722222222222222,446,-0.060374721966058253,0.49211626968930666,Golfo de México y Caribe
Quintana Roo,Tulum,23_9_580,-87.49379694444444,20.204663611111112,Don Brígido,9.28,0.24242424242424243,0.3939393939393939,447,0.2346106361195348,0.520831504779182,Golfo de México y Caribe
Quintana Roo,Tulum,23_9_585,-87.3721486111111,20.339894722222223,Océano Azul,15,0.16666666666666666,0.25,448,2.3396878710687368,0.7257494304559259,Golfo de México y Caribe
Quintana Roo,Tulum,23_9_589,-87.51842194444444,20.29770027777778,Kilómetro Doce,8.1,0.225,0.425,449,-0.03863621622097174,0.49423239608630437,Golfo de México y Caribe
Quintana Roo,Tulum,23_9_591,-87.51085583333334,20.288946666666668,Lum Ha [Lotes],13.5,0.1111111111111111,0.4444444444444444,450,2.4253820254390934,0.7340912946234988,Golfo de México y Caribe
Quintana Roo,Tulum,23_9_592,-87.50535277777777,20.292296111111114,Kilómetro Diez Punto Cinco,11,0.26666666666666666,0.6,451,1.080803179475891,0.6032037891917761,Golfo de México y Caribe
Quintana Roo,Bacalar,23_10_1,-88.38935277777779,18.676146666666668,Bacalar,10.01,0.25273409435619065,0.7552486628881616,452,1.0756370345103508,0.6027008928169979,Golfo de México y Caribe
Quintana Roo,Bacalar,23_10_4,-88.38696972222223,18.707325555555556,Aarón Merino [Colonia],8.28,0.2033898305084746,0.6101694915254238,453,0.4537434512938958,0.5421629035458021,Golfo de México y Caribe
Quintana Roo,Bacalar,23_10_9,-88.11184944444445,19.0027675,Anastacio Valdez Huchin,6,0.23076923076923078,0.9230769230769231,454,0.07792090422396891,0.5055786036970709,Golfo de México y Caribe
Quintana Roo,Bacalar,23_10_22,-88.23846805555556,18.883604722222223,Buenavista,7.44,0.26495726495726496,0.8319088319088319,455,0.25560773112911883,0.5228754588361482,Golfo de México y Caribe
Quintana Roo,Bacalar,23_10_30,-88.1766688888889,19.0370925,Chacchoben,7.35,0.23941605839416058,0.6627737226277373,456,0.0491054518660588,0.5027735746812293,Golfo de México y Caribe
Quintana Roo,Bacalar,23_10_31,-88.11749999999999,18.959722222222222,Chula Vista,8.84,0.45535714285714285,0.125,457,-1.4139959347038178,0.36034853857660304,Golfo de México y Caribe
Quintana Roo,Bacalar,23_10_77,-88.13024305555555,19.031398333333332,El Pedregal,7.28,0.14285714285714285,0.5238095238095238,458,0.2434774925873306,0.5216946454775317,Golfo de México y Caribe
Quintana Roo,Bacalar,23_10_144,-88.46027777777778,18.746666666666666,La Nueva Esperanza,9,0.4915254237288136,1,459,0.008257463834116185,0.4987972431544784,Golfo de México y Caribe
Quintana Roo,Bacalar,23_10_174,-88.21262083333333,18.978648055555553,Lázaro Cárdenas,7.19,0.2042755344418052,0.9002375296912114,460,0.579877011781853,0.554441325992396,Golfo de México y Caribe
Quintana Roo,Bacalar,23_10_177,-88.1094786111111,19.02431888888889,Limones,7.41,0.3176341730558598,0.7396860167944506,461,-0.16995328005004168,0.48144938752060545,Golfo de México y Caribe
Quintana Roo,Bacalar,23_10_209,-88.34449388888888,18.83269611111111,Miguel Hidalgo y Costilla,7.43,0.35730858468677495,0.7853828306264501,462,-0.27293948001804236,0.4714242358917711,Golfo de México y Caribe
Quintana Roo,Bacalar,23_10_251,-88.16551666666668,18.954056388888887,Pedro Antonio Santos,7.09,0.3087248322147651,0.4597315436241611,463,-0.7315255450404989,0.42678335353909597,Golfo de México y Caribe
Quintana Roo,Bacalar,23_10_258,-87.56416666666667,19.066666666666666,Punta Pulticub,5.29,0.4166666666666667,0.4166666666666667,464,-1.9530651565820567,0.30787305458509484,Golfo de México y Caribe
Quintana Roo,Bacalar,23_10_279,-88.47277777777778,18.674166666666668,Salamanca,4.36,0.47404255319148936,0.7463829787234042,465,-1.9724329273063959,0.30598770646773227,Golfo de México y Caribe
Quintana Roo,Bacalar,23_10_292,-88.37028722222222,18.8106425,San Isidro la Laguna,6.03,0.35239852398523985,0.8625461254612546,466,-0.6018232284577538,0.4394091751613823,Golfo de México y Caribe
Quintana Roo,Bacalar,23_10_335,-88.32023111111111,18.790593611111113,Xtomoc Uno,7.38,0.2,1,467,0.8422412880965224,0.579981074549593,Golfo de México y Caribe
Quintana Roo,Bacalar,23_10_356,-88.23017555555556,18.8971025,Kilómetro 49 más 870,11.31,0.1111111111111111,0.8333333333333334,468,2.3460636000889306,0.7263700733206171,Golfo de México y Caribe
Quintana Roo,Bacalar,23_10_423,-88.40509055555556,18.703725,Antorcha Bacalar,7.36,0.3469387755102041,0.6394557823129252,469,-0.5044241697255332,0.4488904486970564,Golfo de México y Caribe
Quintana Roo,Puerto Morelos,23_11_1,-86.87617722222221,20.8484525,Puerto Morelos,11.23,0.22947149179901066,0.6488414475397032,470,1.4254695428573911,0.6367552024426008,Golfo de México y Caribe
Quintana Roo,Puerto Morelos,23_11_14,-86.93560694444444,20.869644722222223,Angélica Dorantes Ordoñez,12.25,0.125,0.5,471,2.0205693762493233,0.6946849645456967,Golfo de México y Caribe
Quintana Roo,Puerto Morelos,23_11_33,-87.04894527777778,20.86303888888889,Central Vallarta,9.32,0.22807017543859648,0.8421052631578947,472,1.1062229296506505,0.6056782648977272,Golfo de México y Caribe
Quintana Roo,Puerto Morelos,23_11_187,-86.92179527777779,20.84036638888889,Las Sábilas [Rancho],8.9,0.38095238095238093,0.2857142857142857,473,-0.7531590155634259,0.42467745175499616,Golfo de México y Caribe
Quintana Roo,Puerto Morelos,23_11_338,-86.91270916666667,20.811544722222223,Punta Brava,9.33,0,0.3333333333333333,474,1.308719511231805,0.6253902159678946,Golfo de México y Caribe
Quintana Roo,Puerto Morelos,23_11_460,-86.95301805555556,20.85884666666667,Rogelio Molina,9.5,0.3333333333333333,0.2777777777777778,475,-0.3293623231288587,0.46593177614773146,Golfo de México y Caribe
Quintana Roo,Puerto Morelos,23_11_540,-86.87694083333332,20.906103888888886,Aldea Kin,15.21,0.125,0.875,476,3.712886577999749,0.8594229251356024,Golfo de México y Caribe
Quintana Roo,Puerto Morelos,23_11_541,-86.87690055555555,20.903378055555553,Aldea Ha,16,0,0.8333333333333334,477,4.514914374980206,0.9374960094689142,Golfo de México y Caribe
Tabasco,Cárdenas,27_2_2,-93.61568861111111,18.38108777777778,El Alacrán,6.3,0.32075471698113206,0.7471698113207547,478,-0.5588727886862777,0.44359016903597864,Golfo de México y Caribe
Tabasco,Cárdenas,27_2_3,-93.62590694444444,18.173916944444446,Poblado C-11 José María Morelos y Pavón,7.6,0.34834123222748814,0.7851500789889415,479,-0.17102874672992194,0.4813446966344391,Golfo de México y Caribe
Tabasco,Cárdenas,27_2_4,-93.56403999999999,18.112064444444446,Poblado C-15 Adolfo López Mateos,7.07,0.3537165873306481,0.6462834126693519,480,-0.626071100348179,0.43704877549178,Golfo de México y Caribe
Tabasco,Cárdenas,27_2_12,-93.61834416666666,18.255837777777778,Azucena 1ra. Sección,6.77,0.4021276595744681,0.7510638297872341,481,-0.778595424731286,0.42220135438583317,Golfo de México y Caribe
Tabasco,Cárdenas,27_2_13,-93.6487463888889,18.26808833333333,Azucena 2da. Sección,6.82,0.3937146892655367,0.6338276836158192,482,-0.9271236053606555,0.4077429363412118,Golfo de México y Caribe
Tabasco,Cárdenas,27_2_14,-93.6843875,18.281080833333334,Azucena 3ra. Sección (El Triunfo),6.38,0.4188422247446084,0.6935300794551645,483,-1.096079152243209,0.3912960242640936,Golfo de México y Caribe
Tabasco,Cárdenas,27_2_17,-94.03228527777777,18.23111222222222,El Barí 2da. Sección,6.2,0.2708333333333333,0.9791666666666666,484,0.054132038056132314,0.5032628857612239,Golfo de México y Caribe
Tabasco,Cárdenas,27_2_18,-93.73093805555555,18.116611944444447,El Bronce,8.17,0.375,0.3355263157894737,485,-0.8915148190546467,0.41120925981122447,Golfo de México y Caribe
Tabasco,Cárdenas,27_2_19,-93.85381888888888,18.09677222222222,Buenavista 1ra. Sección,8.22,0.3286573146292585,0.8076152304609219,486,0.1791961419786466,0.5154372023739067,Golfo de México y Caribe
Tabasco,Cárdenas,27_2_22,-93.86345138888888,18.29391388888889,Coronel Andrés Sánchez Magallanes,8.28,0.27709314969191734,0.4099311344690105,487,-0.25236529402702135,0.4734270220346127,Golfo de México y Caribe
Tabasco,Cárdenas,27_2_23,-93.73786555555556,18.089450277777775,Campo Nuevo,9.14,0.39473684210526316,0.5964912280701754,488,-0.1886335075673707,0.47963096802963934,Golfo de México y Caribe
Tabasco,Cárdenas,27_2_25,-93.49736416666667,18.111495833333336,Poblado C-16 General Emiliano Zapata,7.75,0.3116321420441612,0.8488504438880037,489,0.16955669957775935,0.5144988545980267,Golfo de México y Caribe
Tabasco,Cárdenas,27_2_26,-93.77599555555555,18.173481111111112,El Capricho,7.88,0.23728813559322035,0.9152542372881356,490,0.6885265939516321,0.5650177773616084,Golfo de México y Caribe
Tabasco,Cárdenas,27_2_29,-93.90825000000001,18.177341944444446,Benito Juárez (Campo Magallanes),8.71,0.22882837871596304,0.6729952535598301,491,0.5922081191546571,0.5556416928493363,Golfo de México y Caribe
Tabasco,Cárdenas,27_2_30,-93.48998388888889,18.176235833333333,Poblado C-09 Licenciado Francisco I. Madero,7.54,0.32906719173024856,0.48978587250799904,492,-0.6193086835745396,0.4377070603256138,Golfo de México y Caribe
Tabasco,Cárdenas,27_2_31,-94.12584,18.205208888888887,Cuauhtemoczín,7.8,0.3006802721088435,0.8816326530612245,493,0.29724721028203294,0.5269288377585996,Golfo de México y Caribe
Tabasco,Cárdenas,27_2_32,-93.86022805555555,18.216630833333333,Chicozapote 1ra. Sección,6.77,0.2946666666666667,0.3,494,-1.056795181747809,0.3951201071113236,Golfo de México y Caribe
Tabasco,Cárdenas,27_2_34,-93.56791722222222,18.174747777777778,Poblado C-10 General Lázaro Cárdenas del Río,7.09,0.35561005518087063,0.7075413856529736,495,-0.5203671856830696,0.4473384820020537,Golfo de México y Caribe
Tabasco,Cárdenas,27_2_35,-93.55635111111111,18.255457222222223,Encrucijada 3ra. Sección (Las Calzadas),7.6,0.36989795918367346,0.7404336734693877,496,-0.3531762964183719,0.46361361416887836,Golfo de México y Caribe
Tabasco,Cárdenas,27_2_36,-93.54256166666667,18.212479444444444,Encrucijada 4ta. Sección B (La Lucha),6.45,0.3488843813387424,0.46247464503042596,497,-1.1426164252163218,0.386765871504861,Golfo de México y Caribe
Tabasco,Cárdenas,27_2_37,-93.61165388888888,18.226152777777777,Encrucijada 5ta. Sección,7.81,0.3387096774193548,0.8894009216589862,498,0.13191254518296616,0.5108343990120908,Golfo de México y Caribe
Tabasco,Cárdenas,27_2_38,-93.77159361111111,18.20160027777778,Las Flores (La Palma),7.66,0.3589041095890411,0.10684931506849316,499,-1.3946143168567469,0.3622352346367487,Golfo de México y Caribe
Tabasco,Cárdenas,27_2_40,-93.5312961111111,18.3280025,El Golpe,7.26,0.3268156424581006,0.7094972067039106,500,-0.3194589555835622,0.46689581561426696,Golfo de México y Caribe
Tabasco,Cárdenas,27_2_41,-93.54263944444445,18.34060611111111,El Mingo,6.35,0.3130630630630631,0.43018018018018017,501,-1.062432241139402,0.39457136975467755,Golfo de México y Caribe
Tabasco,Cárdenas,27_2_42,-93.74156,18.153649444444444,Ignacio Gutiérrez Gómez (San Felipe),9.11,0.3132760267430755,0.48424068767908307,502,-0.005747154805737675,0.49743396899335623,Golfo de México y Caribe
Tabasco,Cárdenas,27_2_49,-93.719220000000007,18.165876666666666,El Jobo (Punta Brava),7.41,0.3619489559164733,0.3480278422273782,503,-1.071935529310427,0.3936462758594116,Golfo de México y Caribe
Tabasco,Cárdenas,27_2_53,-93.60458916666666,18.213669444444445,Naranjeño 1ra. Sección (Colonia la Fe),6.41,0.38006230529595014,0.4174454828660436,504,-1.38543451458927,0.3631288389223984,Golfo de México y Caribe
Tabasco,Cárdenas,27_2_54,-93.62833944444444,18.214986944444444,Naranjeño 2da. Sección A,6.9,0.37367021276595747,0.37367021276595747,505,-1.2609164021625312,0.3752500062050262,Golfo de México y Caribe
Tabasco,Cárdenas,27_2_55,-93.66427805555556,18.226987777777776,Naranjeño 3ra. Sección,6.59,0.35698447893569846,0.8270509977827051,506,-0.49100033110144164,0.4501971870531598,Golfo de México y Caribe
Tabasco,Cárdenas,27_2_57,-93.67692111111111,18.16374361111111,Nueva Esperanza,7.28,0.38773006134969323,0.7214723926380369,507,-0.5837218266963013,0.4411712490839991,Golfo de México y Caribe
Tabasco,Cárdenas,27_2_59,-94.0003886111111,18.24185027777778,Ojoshal,7.76,0.26765799256505574,0.18215613382899629,508,-0.7893281389175276,0.4211565824927111,Golfo de México y Caribe
Tabasco,Cárdenas,27_2_60,-93.95162388888889,18.257584444444444,Paylebot,7.44,0.3249370277078086,0.6209068010075567,509,-0.4035890429676252,0.45870620493988173,Golfo de México y Caribe
Tabasco,Cárdenas,27_2_61,-93.7091963888889,18.122098055555558,Poblado C-23 General Venustiano Carranza,8.41,0.30808823529411766,0.7647058823529411,510,0.26864440096716097,0.5241445083971771,Golfo de México y Caribe
Tabasco,Cárdenas,27_2_63,-93.50018055555556,18.292405277777778,Santuario 3ra. Sección (Piedras Negras),7.11,0.3896457765667575,0.6634877384196185,511,-0.7542570650935805,0.42457056255004266,Golfo de México y Caribe
Tabasco,Cárdenas,27_2_64,-93.76653194444444,18.116286666666667,El Porvenir,7.77,0.3290441176470588,0.2757352941176471,512,-0.9157176475413145,0.40885324487426294,Golfo de México y Caribe
Tabasco,Cárdenas,27_2_65,-93.49860222222222,18.20935861111111,Poza Redonda 1ra. Sección,7.15,0.3250194855806703,0.7466874512860483,513,-0.28374696649959374,0.4703721853186089,Golfo de México y Caribe
Tabasco,Cárdenas,27_2_66,-93.47670722222223,18.237990833333335,Poza Redonda 2da. Sección,7.34,0.34067796610169493,0.559322033898305,514,-0.6223919169422067,0.43740692417118193,Golfo de México y Caribe
Tabasco,Cárdenas,27_2_67,-93.87882527777776,18.191300277777778,Chicozapote 2da. Sección (El Retiro),8.34,0.28714285714285714,0.71,515,0.24846041353679627,0.5221797059816422,Golfo de México y Caribe
Tabasco,Cárdenas,27_2_74,-93.55136666666667,18.308292222222224,Francisco Trujillo Gurría,7.17,0.3905882352941176,0.7788235294117647,516,-0.5348613721579425,0.4459275510502141,Golfo de México y Caribe
Tabasco,Cárdenas,27_2_78,-93.43139861111112,18.17469861111111,Santana 2da. Sección B (La Palma),7.3,0.3673890608875129,0.6197110423116615,517,-0.6582367703665563,0.43391762083923946,Golfo de México y Caribe
Tabasco,Cárdenas,27_2_79,-93.44769055555555,18.168389444444447,Santana 3ra. Sección A (El Filero),7.85,0.3411214953271028,0.6448598130841121,518,-0.29610796990846333,0.46916890824365176,Golfo de México y Caribe
Tabasco,Cárdenas,27_2_80,-93.46035277777779,18.138835555555556,Santana 4ta. Sección,7.12,0.34417344173441733,0.7452574525745257,519,-0.3886418888429308,0.46016122985162894,Golfo de México y Caribe
Tabasco,Cárdenas,27_2_84,-93.51797972222222,18.26092722222222,Santuario 1ra. Sección,7.91,0.3694004135079256,0.819434872501723,520,-0.10363153891683613,0.4879054516472095,Golfo de México y Caribe
Tabasco,Cárdenas,27_2_85,-93.49360083333333,18.268936944444444,Santuario 2da. Sección,7.74,0.3601621308627678,0.7417486971627099,521,-0.25531631222290674,0.47313975631471633,Golfo de México y Caribe
Tabasco,Cárdenas,27_2_89,-94.01903833333333,18.21133972222222,El Yucateco (Paylebot 2da. Sección),6.17,0.27436281859070466,0.7946026986506747,522,-0.29810377200442284,0.4689746276639298,Golfo de México y Caribe
Tabasco,Cárdenas,27_2_93,-93.71892,18.187161666666668,Islas Encantadas 1ra. Sección (El Zapote),7.41,0.3359253499222395,0.6127527216174183,523,-0.48113344551352905,0.451157675197726,Golfo de México y Caribe
Tabasco,Cárdenas,27_2_94,-93.6125861111111,18.120051111111113,Poblado C-14 General Plutarco Elías Calles,7.76,0.32158211521926056,0.7244196044711951,524,-0.09370401678526409,0.4888718424325627,Golfo de México y Caribe
Tabasco,Cárdenas,27_2_98,-93.55701527777778,18.28771888888889,Las Coloradas 2da. Sección B,7.29,0.36633663366336633,0.8712871287128713,525,-0.21389536775617124,0.47717186206303575,Golfo de México y Caribe
Tabasco,Cárdenas,27_2_99,-93.66726722222222,18.36402277777778,El Alacrán (Manatinero),6.64,0.3736559139784946,0.7204301075268817,526,-0.7412198402258406,0.4258396661402218,Golfo de México y Caribe
Tabasco,Cárdenas,27_2_100,-93.62122722222222,18.269788055555555,Azucena 5ta. Sección (El Apompal),6.61,0.4024390243902439,0.17073170731707318,527,-1.857285445573047,0.3171966933457211,Golfo de México y Caribe
Tabasco,Cárdenas,27_2_101,-93.59807444444444,18.256551666666667,Azucena 4ta. Sección (Torno Alegre),6.83,0.4087431693989071,0.3836065573770492,528,-1.4361481631201154,0.358192138506895,Golfo de México y Caribe
Tabasco,Cárdenas,27_2_113,-93.8853163888889,18.098590833333333,Buenavista 2da. Sección,9.09,0.3067484662576687,0.6748466257668712,529,0.3540720450199316,0.5324604292214158,Golfo de México y Caribe
Tabasco,Cárdenas,27_2_114,-93.74639472222222,18.33689833333333,Sinaloa 2da. Sección (Arjona),6.46,0.3482758620689655,0.7827586206896552,530,-0.5725030077504051,0.44226334065611256,Golfo de México y Caribe
Tabasco,Cárdenas,27_2_116,-93.7489811111111,18.113651111111114,Las Limas,7.95,0.3381818181818182,0.5490909090909091,531,-0.4156808264386401,0.4575291349751911,Golfo de México y Caribe
Tabasco,Cárdenas,27_2_117,-93.62393888888889,18.0679725,Poblado C-22 Licenciado José María Pino Suárez,8.05,0.3275171624713959,0.8443935926773455,532,0.19010998478066837,0.5164996061617688,Golfo de México y Caribe
Tabasco,Cárdenas,27_2_118,-94.08029305555556,18.212089444444445,El Barí 1ra. Sección,6.95,0.33643122676579923,0.6301115241635687,533,-0.6134358119308282,0.4382787527343363,Golfo de México y Caribe
