NOM_ENT,NOM_MUN,COM_ID,dec_lon,dec_lat,NOM_LOC,sst,prod,LOC,PC1,PCA_norm,region
Campeche,Calkiní,4_1_2,-90.45245916666667,20.690499444444445,Isla Arena,0.24590304493904114,0.8843586444854736,1,2.8079354671909913,0.8990652422790613,Golfo de México y Caribe
Campeche,Calkiní,4_1_9,-90.21930777777779,20.365076666666667,Pucnachén,0.2524835169315338,0.8829015493392944,2,2.7681845151479028,0.893628212714969,Golfo de México y Caribe
Campeche,Calkiní,4_1_11,-90.2356975,20.437918888888888,San Nicolás,0.2438051849603653,0.8858038187026978,3,2.8253141377301345,0.9014422506436287,Golfo de México y Caribe
Campeche,Calkiní,4_1_12,-90.24051916666667,20.39787111111111,Santa Cruz Ex-Hacienda,0.24914290010929108,0.8836267590522766,4,2.7882947760072616,0.8963788407430832,Golfo de México y Caribe
Campeche,Calkiní,4_1_14,-90.24278555555556,20.50789222222222,Tankuché,0.23696306347846985,0.8884991407394409,5,2.872309728872014,0.9078701826877071,Golfo de México y Caribe
Campeche,Calkiní,4_1_16,-90.24536916666666,20.372651944444446,Santa María,0.2524305582046509,0.8820558190345764,6,2.7643895868932242,0.893109152515054,Golfo de México y Caribe
Campeche,Campeche,4_2_1,-90.53964916666666,19.844814166666666,San Francisco de Campeche,0.2764124572277069,0.843578040599823,7,2.4603537988743205,0.851523945544186,Golfo de México y Caribe
Campeche,Campeche,4_2_68,-90.42054694444445,19.65893472222222,Uayamón,0.2596302926540375,0.8359760642051697,8,2.507416752576456,0.8579610912602095,Golfo de México y Caribe
Campeche,Campeche,4_2_70,-90.36565888888889,19.908939444444442,Bethania,0.266083687543869,0.8546428680419922,9,2.5648707277482017,0.8658194932739472,Golfo de México y Caribe
Campeche,Campeche,4_2_71,-90.42053083333334,19.770520555555553,San Antonio Bobolá,0.2625429034233093,0.8432860374450684,10,2.5279971020869176,0.8607760167645455,Golfo de México y Caribe
Campeche,Campeche,4_2_73,-90.43043222222222,19.837024166666666,Castamay,0.26529690623283386,0.8470487594604492,11,2.5323441661853017,0.8613705966376086,Golfo de México y Caribe
Campeche,Campeche,4_2_75,-90.35620805555556,19.92016166666667,Chemblás,0.2666037976741791,0.855771005153656,12,2.567695348870288,0.8662058374433019,Golfo de México y Caribe
Campeche,Campeche,4_2_77,-90.49528111111111,19.76931972222222,Chiná,0.2680070400238037,0.8403103947639465,13,2.4865160867477805,0.8551023537412553,Golfo de México y Caribe
Campeche,Campeche,4_2_81,-90.38786083333333,19.926273611111114,Hampolol,0.2672995328903198,0.8545581102371216,14,2.5584113351344873,0.8649359947210379,Golfo de México y Caribe
Campeche,Campeche,4_2_82,-90.49047083333333,19.609005833333335,Hobomó,0.2620883584022522,0.8309735059738159,15,2.4711734426541483,0.853003827662232,Golfo de México y Caribe
Campeche,Campeche,4_2_86,-90.47362694444445,19.875685555555556,Imí,0.2700396478176117,0.8476614952087402,16,2.511674579897044,0.8585434655639933,Golfo de México y Caribe
Campeche,Campeche,4_2_87,-90.60070194444444,19.806181666666667,Lerma,0.28368082642555237,0.8393820524215698,17,2.4040347591268176,0.8438207769811653,Golfo de México y Caribe
Campeche,Campeche,4_2_89,-90.46217166666666,19.68785111111111,Mucuychakán,0.2624591886997223,0.8362985253334045,18,2.494881563954865,0.8562465614785533,Golfo de México y Caribe
Campeche,Campeche,4_2_90,-90.27065694444444,19.84552888888889,Nilchí,0.27079641819000244,0.855136513710022,19,2.5437790402903397,0.8629346283242806,Golfo de México y Caribe
Campeche,Campeche,4_2_93,-90.52295138888888,19.712464722222222,San Agustín Olá,0.2684910297393799,0.836082935333252,20,2.463819617155952,0.8519979909567481,Golfo de México y Caribe
Campeche,Campeche,4_2_97,-90.35067,19.729957499999998,Pocyaxum,0.2613171339035034,0.8434674739837646,21,2.5349698489639874,0.8617297305491227,Golfo de México y Caribe
Campeche,Campeche,4_2_101,-90.41711027777778,19.916219444444444,San Francisco Kobén,0.26823294162750244,0.8525745272636414,22,2.544245704132582,0.8629984573642496,Golfo de México y Caribe
Campeche,Campeche,4_2_178,-90.66727444444444,19.724171666666663,Ensenada,0.29104486107826233,0.8327778577804565,23,2.3356827723037834,0.8344717739002214,Golfo de México y Caribe
Campeche,Campeche,4_2_200,-90.43078,19.8967,Horticultores de Kobén,0.2680738568305969,0.8507493734359741,24,2.5362789434878756,0.8619087850185819,Golfo de México y Caribe
Campeche,Campeche,4_2_249,-90.39793583333334,19.796704722222223,Miguel Alemán (X-Campéu),0.262624591588974,0.8460030555725098,25,2.540629110163558,0.8625037892539215,Golfo de México y Caribe
Campeche,Campeche,4_2_326,-90.64277777777778,19.773333333333333,Mar Azul,0.2890029549598694,0.83614349365234375,26,2.36199897532647,0.838071234202302,Golfo de México y Caribe
Campeche,Campeche,4_2_329,-90.63616972222223,19.77809611111111,Club Náutico y Deportivo de Campeche,0.28806042671203613,0.836633026599884,27,2.3690402271221305,0.8390343179075608,Golfo de México y Caribe
Campeche,Campeche,4_2_402,-90.50169194444445,19.74675527777778,San Francisco Uxmal,0.2678465247154236,0.8387728333473206,28,2.479936570905884,0.8542024250524776,Golfo de México y Caribe
Campeche,Campeche,4_2_501,-90.46584777777778,19.82031027777778,Nuevo San Antonio Ebulá,0.26685142517089844,0.8445276618003845,29,2.5125070887717698,0.8586573339151046,Golfo de México y Caribe
Campeche,Campeche,4_2_520,-90.51050611111111,19.73611138888889,La Palma,0.2682530879974365,0.8378704786300659,30,2.473582343169728,0.8533333106719967,Golfo de México y Caribe
Campeche,Campeche,4_2_585,-90.26948888888889,19.79485027777778,Nueva Esperanza,0.26961749792099,0.8514829277992249,31,2.532114725184463,0.8613392143073585,Golfo de México y Caribe
Campeche,Campeche,4_2_875,-90.50034388888889,19.745899166666668,San Francisco,0.2676984965801239,0.8387646675109863,32,2.4806342888973467,0.8542978570648446,Golfo de México y Caribe
Campeche,Campeche,4_2_960,-90.46615361111111,19.831718333333335,Seet Ka'an (Rincón del Cielo),0.2673373520374298,0.8452140688896179,33,2.5133820664861872,0.8587770110412286,Golfo de México y Caribe
Campeche,Campeche,4_2_976,-90.39961111111111,19.828598055555556,Escondido,0.263792484998703,0.8479778170585632,34,2.5442918296322734,0.8630047662874978,Golfo de México y Caribe
Campeche,Carmen,4_3_1,-91.83645,18.637789444444444,Ciudad del Carmen,0.3557943105697632,0.6762540340423584,35,1.2622107274060375,0.6876451208427268,Golfo de México y Caribe
Campeche,Carmen,4_3_5,-92.28904861111111,18.622946666666667,Nuevo Progreso,0.286878764629364,0.6410454511642456,36,1.4363200123045567,0.7114593260559781,Golfo de México y Caribe
Campeche,Carmen,4_3_6,-92.10385027777777,18.61923416666667,Atasta,0.31980323791503906,0.657672107219696,37,1.352206789919874,0.6999545430676143,Golfo de México y Caribe
Campeche,Carmen,4_3_7,-91.62666444444444,18.733713611111114,Santa Isabel,0.36339858174324036,0.6881853342056274,38,1.281612556474414,0.6902988514534525,Golfo de México y Caribe
Campeche,Carmen,4_3_13,-91.93906083333334,18.620912222222223,Puerto Rico,0.3465610444545746,0.6698831915855408,39,1.277602273550672,0.6897503356143065,Golfo de México y Caribe
Campeche,Carmen,4_3_16,-91.88440833333334,18.563358611111113,El Playaso,0.35564833879470825,0.6741753816604614,40,1.2529621773456048,0.6863801287477186,Golfo de México y Caribe
Campeche,Carmen,4_3_31,-91.54568555555555,18.323047222222222,Santa Rita,0.38381850719451904,0.6918972134590149,41,1.1977721794374527,0.6788313875265385,Golfo de México y Caribe
Campeche,Carmen,4_3_55,-91.69791027777778,18.698909166666667,Bahamita [Jaibera],0.36143216490745544,0.683661937713623,42,1.2696943874661928,0.6886687159745007,Golfo de México y Caribe
Campeche,Carmen,4_3_64,-90.9442375,18.899880833333334,Ignacio Gutiérrez,0.31920984387397766,0.7927993535995483,43,2.003621190325291,0.7890532733229446,Golfo de México y Caribe
Campeche,Carmen,4_3_65,-90.97165277777778,18.71869222222222,José María Pino Suárez,0.349386990070343,0.7843562960624695,44,1.812877823873286,0.7629639026474979,Golfo de México y Caribe
Campeche,Carmen,4_3_82,-91.27816694444445,18.857086666666667,Calax,0.35800406336784363,0.7433587312698364,45,1.5732381333062657,0.7301866227239756,Golfo de México y Caribe
Campeche,Carmen,4_3_101,-92.22438666666667,18.61777916666667,San Antonio Cárdenas,0.29807716608047485,0.6473000645637512,46,1.410587975398042,0.7079397664425786,Golfo de México y Caribe
Campeche,Carmen,4_3_118,-92.46523861111112,18.645004166666666,Nuevo Campechito,0.25456446409225464,0.6203121542930603,47,1.4976884030713145,0.7198531314304495,Golfo de México y Caribe
Campeche,Carmen,4_3_199,-91.4834563888889,18.78302083333333,Isla Aguada,0.3686482310295105,0.7048413753509521,48,1.3354095237299166,0.6976570576445801,Golfo de México y Caribe
Campeche,Carmen,4_3_262,-92.31144638888888,18.664831944444444,Colonia Emiliano Zapata,0.2840207815170288,0.6378673315048218,49,1.4352960175190035,0.7113192667709453,Golfo de México y Caribe
Campeche,Carmen,4_3_364,-90.97648666666667,18.69601638888889,Independencia,0.35263749957084656,0.7826542258262634,50,1.7885282865838734,0.7596334376570997,Golfo de México y Caribe
Campeche,Carmen,4_3_450,-91.09333444444444,19.021427222222222,Nohan,0.33097270131111145,0.7777224779129028,51,1.872711803901867,0.7711478353996009,Golfo de México y Caribe
Campeche,Carmen,4_3_611,-91.0104275,18.825222222222223,Checubul,0.3357459604740143,0.7841001749038696,52,1.8795556950225412,0.7720839246363114,Golfo de México y Caribe
Campeche,Carmen,4_3_612,-91.05597055555555,18.7295125,La Cristalina,0.3517933189868927,0.7754352688789368,53,1.7580877770332886,0.7554698656703668,Golfo de México y Caribe
Campeche,Carmen,4_3_613,-90.96762944444444,18.740636666666667,Nicolás Bravo,0.3451119065284729,0.7858072519302368,54,1.8411227656209646,0.7668271707058761,Golfo de México y Caribe
Campeche,Carmen,4_3_614,-91.180515,18.97464472222222,Sabancuy,0.3416535258293152,0.7618442177772522,55,1.7433431763283342,0.7534531383764727,Golfo de México y Caribe
Campeche,Carmen,4_3_733,-91.22076750000001,18.58006111111111,Bella Palizada,0.37707561254501343,0.745625376701355,56,1.4891746494173543,0.7186886428348606,Golfo de México y Caribe
Campeche,Carmen,4_3_756,-91.13769,18.465235,La Bretaña,0.3781524896621704,0.7480685710906982,57,1.4955384174396842,0.7195590621103267,Golfo de México y Caribe
Campeche,Carmen,4_3_760,-91.10644666666666,18.50552111111111,Buena Vista (Las Arboleras),0.37581148743629456,0.7546875476837158,58,1.5389559778954944,0.7254976006274199,Golfo de México y Caribe
Campeche,Carmen,4_3_811,-91.53605944444445,18.204699166666664,Centauro del Norte,0.3824771046638489,0.68523770570755,59,1.1724916443443494,0.6753735831311045,Golfo de México y Caribe
Campeche,Carmen,4_3_830,-91.12035527777778,18.487335277777778,La Nueva Esperanza,0.37701281905174255,0.7517487406730652,60,1.518872576727017,0.7227506463964325,Golfo de México y Caribe
Campeche,Carmen,4_3_1138,-91.08146527777778,18.715274444444443,Los Manantiales,0.35479646921157837,0.771676778793335,61,1.7251011023638618,0.7509580359862787,Golfo de México y Caribe
Campeche,Carmen,4_3_1167,-90.97578277777778,18.841536944444442,Mina de Oro,0.329768568277359,0.7882744669914246,62,1.9293439522386517,0.7788938301232339,Golfo de México y Caribe
Campeche,Carmen,4_3_1285,-91.24391222222222,18.55384861111111,Polboxal,0.37986674904823303,0.7406822443008423,63,1.4515584441928204,0.7135435982665428,Golfo de México y Caribe
Campeche,Carmen,4_3_1340,-92.42929833333334,18.64925472222222,El Recuerdo,0.26097288727760315,0.6245191097259521,64,1.4859750735663368,0.7182510133542966,Golfo de México y Caribe
Campeche,Carmen,4_3_1351,-92.42596305555556,18.518193333333333,Ribera de San Francisco,0.2516314685344696,0.6266599893569946,65,1.54275181216966,0.726016784750272,Golfo de México y Caribe
Campeche,Carmen,4_3_1404,-91.67292416666668,18.712330555555553,San Benito,0.3618740439414978,0.6851403117179871,66,1.2745892013209446,0.689338215603344,Golfo de México y Caribe
Campeche,Carmen,4_3_1539,-91.68246083333334,18.34293361111111,Santa Cruz,0.37742045521736145,0.6850957274436951,67,1.196983020230626,0.6787234484277808,Golfo de México y Caribe
Campeche,Carmen,4_3_1717,-91.96363027777778,18.599926944444444,Pinzón,0.34439557790756226,0.6684327125549316,68,1.281421586060094,0.6902727310277731,Golfo de México y Caribe
Campeche,Carmen,4_3_1722,-92.43622,18.64663861111111,La Envidia,0.2595181167125702,0.6237406134605408,69,1.489481210755427,0.7187305734798549,Golfo de México y Caribe
Campeche,Carmen,4_3_1776,-90.96668,18.863221388888892,Oxcabal,0.32591062784194946,0.7897266745567322,70,1.955518303572163,0.7824738883283049,Golfo de México y Caribe
Campeche,Carmen,4_3_1830,-91.74493111111111,18.673165555555556,El Fénix (Ecoparque),0.3602615296840668,0.6811901330947876,71,1.2636600632478296,0.6878433571468934,Golfo de México y Caribe
Campeche,Carmen,4_3_1843,-91.68552333333334,18.704876388888888,Cocodrilos Maya,0.3617013096809387,0.6844050288200378,72,1.2719205571891212,0.6889732055521373,Golfo de México y Caribe
Campeche,Carmen,4_3_1847,-91.6205825,18.73300972222222,Ensenada Grande,0.36381447315216064,0.688753068447113,73,1.2822666829667835,0.690388321136438,Golfo de México y Caribe
Campeche,Carmen,4_3_2044,-91.185185,18.400360555555554,San Manuel,0.37986886501312256,0.737952709197998,74,1.4384491797923307,0.711750547925718,Golfo de México y Caribe
Campeche,Carmen,4_3_2221,-92.38026972222221,18.47571083333333,Ribera Media San Francisco,0.25913214683532715,0.6323364973068237,75,1.5326532994100799,0.7246355370164396,Golfo de México y Caribe
Campeche,Carmen,4_3_2222,-92.35736694444444,18.444645833333333,Ribera Alta San Francisco,0.26424381136894226,0.6347591876983643,76,1.51883293070479,0.7227452237188897,Golfo de México y Caribe
Campeche,Carmen,4_3_2248,-91.57756888888889,18.3323875,Generalísimo Morelos,0.38302305340766907,0.6903274655342102,77,1.1941990174000312,0.6783426599203746,Golfo de México y Caribe
Campeche,Carmen,4_3_2249,-91.58277777777778,18.333888888888886,Valle de Solidaridad,0.3828328251838684,0.6900869607925415,78,1.193991845200429,0.678314323457568,Golfo de México y Caribe
Campeche,Carmen,4_3_2250,-91.58341916666666,18.336092777777775,Murallas de Campeche,0.38278520107269287,0.6901506185531616,79,1.1945344111443046,0.6783885341852538,Golfo de México y Caribe
Campeche,Carmen,4_3_2251,-91.61011111111111,18.323529166666667,Fernando Foglio Miramontes,0.38181358575820923,0.6881052255630493,80,1.1895556390426096,0.6777075509705511,Golfo de México y Caribe
Campeche,Carmen,4_3_2268,-91.64308194444445,18.255119166666667,Beraca,0.3804418742656708,0.6829474568367004,81,1.1716326622874178,0.6752560938484956,Golfo de México y Caribe
Campeche,Carmen,4_3_2724,-91.54809305555555,18.76991,Careyes (Huarixe),0.3670494556427002,0.6955292820930481,82,1.2986807685820922,0.6926333961389496,Golfo de México y Caribe
Campeche,Carmen,4_3_2978,-91.81754527777777,18.241426944444445,San Fernando,0.3687463700771332,0.6740542054176331,83,1.1871768206869404,0.6773821825186621,Golfo de México y Caribe
Campeche,Carmen,4_3_3080,-91.80141305555556,18.217362499999997,El Zapote,0.3687371015548706,0.6737421154975891,84,1.1857252764015735,0.6771836441494533,Golfo de México y Caribe
Campeche,Carmen,4_3_3140,-91.81083333333333,18.223702777777778,San Joaquín,0.36842209100723267,0.6735783219337463,85,1.1865074164775151,0.6772906231901452,Golfo de México y Caribe
Campeche,Carmen,4_3_3155,-91.43635777777779,18.282495277777777,Juan de la Cabada Vera,0.38471680879592896,0.6994559168815613,86,1.2295736719177643,0.6831811111409639,Golfo de México y Caribe
Campeche,Carmen,4_3_3191,-91.80814027777778,18.22189361111111,San José las Flores,0.3685101866722107,0.673628568649292,87,1.186309992158171,0.6772636200164909,Golfo de México y Caribe
Campeche,Carmen,4_3_3194,-91.8042325,18.219829166666663,San Luis,0.3686617910861969,0.6737256646156311,88,1.1860212366022473,0.6772241247990517,Golfo de México y Caribe
Campeche,Carmen,4_3_3217,-91.51147833333333,18.21173861111111,El Aguacatal,0.38337865471839905,0.6875700354576111,89,1.179196188303375,0.6762906128334237,Golfo de México y Caribe
Campeche,Carmen,4_3_3230,-91.10432999999999,18.50486111111111,Don Paco,0.3757968842983246,0.7548651099205017,90,1.5398807755040778,0.7256240919862487,Golfo de México y Caribe
Campeche,Carmen,4_3_3257,-91.24860111111111,18.30386138888889,El Recuerdo,0.38308849930763245,0.723648190498352,91,1.3537756161079906,0.7001691229437508,Golfo de México y Caribe
Campeche,Carmen,4_3_3260,-91.19323111111112,18.386310833333333,Las Gemelas [Quinta],0.3802182078361511,0.7360467910766602,92,1.4275638160779536,0.7102616768097052,Golfo de México y Caribe
Campeche,Carmen,4_3_3304,-90.91732916666668,18.670242222222225,Enrique Rodríguez Cano,0.35494983196258545,0.786385715007782,93,1.7949241654199595,0.7605082489643221,Golfo de México y Caribe
Campeche,Carmen,4_3_3318,-91.25021444444444,18.301783888888888,La Estrella,0.3831646740436554,0.7233017683029175,94,1.3517339665279609,0.6998898715408132,Golfo de México y Caribe
Campeche,Carmen,4_3_3333,-91.08939916666667,18.525034444444444,Mamantel (Pancho Villa),0.3743989169597626,0.758106529712677,95,1.5623952615903134,0.7287035635505653,Golfo de México y Caribe
Campeche,Carmen,4_3_3354,-91.30681694444444,18.38753638888889,Ignacio Zaragoza,0.38369861245155334,0.7220439910888672,96,1.3430400150254744,0.6987007359624611,Golfo de México y Caribe
Campeche,Carmen,4_3_3395,-91.00171833333333,18.631106388888888,Licenciado Gustavo Díaz Ordaz (18 de Marzo),0.3627184331417084,0.7759368419647217,97,1.7061080117792664,0.748360211538955,Golfo de México y Caribe
Campeche,Carmen,4_3_3402,-91.09773861111111,18.541517222222225,Mamantel Pueblo (Mamantel Viejo),0.37363091111183167,0.758560299873352,98,1.568396094707889,0.7295243415544248,Golfo de México y Caribe
Campeche,Carmen,4_3_3407,-91.48493666666667,18.225160555555554,Mayalam [Rancho],0.3844284415245056,0.6907289624214172,99,1.1891295355396132,0.6776492696659765,Golfo de México y Caribe
Campeche,Carmen,4_3_3420,-91.09376083333333,18.477594999999997,Nueva Chontalpa,0.3765106499195099,0.7537970542907715,100,1.5312020712579288,0.7244370418870919,Golfo de México y Caribe
Campeche,Carmen,4_3_3431,-91.16450694444445,18.428787222222223,Ojo de Agua de Cuyoc,0.3791709840297699,0.7422641515731812,101,1.4626134549275303,0.7150556732510821,Golfo de México y Caribe
Campeche,Carmen,4_3_3452,-91.03307944444444,18.59779,Pital Nuevo,0.36637166142463684,0.7701741456985474,102,1.6602671977129995,0.74209022683393,Golfo de México y Caribe
Campeche,Carmen,4_3_3453,-91.12468638888888,18.550441111111112,Pital Viejo,0.37403297424316406,0.7562211155891418,103,1.555169086463791,0.7277151865236297,Golfo de México y Caribe
Campeche,Carmen,4_3_3461,-91.41725583333334,18.2370925,El Porvenir,0.3863043189048767,0.6983609199523926,104,1.216416056225441,0.6813814474389579,Golfo de México y Caribe
Campeche,Carmen,4_3_3474,-91.2378475,18.399716388888887,Puerta Blanca,0.381910502910614,0.7316136956214905,105,1.3978654080627855,0.706199607498512,Golfo de México y Caribe
Campeche,Carmen,4_3_3511,-91.09252027777778,18.466702777777776,San Antonio,0.376558393239975,0.753021776676178,106,1.527243928526937,0.7238956576449239,Golfo de México y Caribe
Campeche,Carmen,4_3_3514,-91.4141838888889,18.241468055555558,San Carlos,0.38624152541160583,0.6990219354629517,107,1.219900789899051,0.6818580800485585,Golfo de México y Caribe
Campeche,Carmen,4_3_3531,-91.04972083333332,18.632291944444447,San Isidro,0.36324211955070496,0.7708204984664917,108,1.678948272156878,0.7446453745428521,Golfo de México y Caribe
Campeche,Carmen,4_3_3533,-91.16236944444445,18.431961666666666,San Jorge de Coyoc,0.37909799814224243,0.7427346706390381,109,1.465234756842578,0.7154142079597118,Golfo de México y Caribe
Campeche,Carmen,4_3_3580,-91.18817361111111,18.395142222222223,Kilómetro 59,0.37998154759407043,0.7372459769248962,110,1.4344967016270962,0.7112099384677982,Golfo de México y Caribe
Campeche,Carmen,4_3_3604,-91.12548361111111,18.479241944444443,Santa Lucía,0.377454549074173,0.7505400776863098,111,1.510873345194169,0.7216565327689911,Golfo de México y Caribe
Campeche,Carmen,4_3_3644,-91.25654805555556,18.298106944444445,La Victoria,0.38338321447372437,0.7222681641578674,112,1.345685891858067,0.6990626319629936,Golfo de México y Caribe
Campeche,Carmen,4_3_3771,-91.71143944444445,18.691964444444444,Bahamita Beach,0.3611305356025696,0.6828791499137878,113,1.2674394303679533,0.6883602889361847,Golfo de México y Caribe
Campeche,Carmen,4_3_3781,-90.91179555555556,18.897827499999998,El Arca,0.31553560495376587,0.7954524159431458,114,2.034643816148153,0.793296465626159,Golfo de México y Caribe
Campeche,Carmen,4_3_3804,-91.80188916666667,18.209982222222223,Los Coquitos,0.3684317171573639,0.6733150482177734,115,1.1851960753028765,0.6771112614297679,Golfo de México y Caribe
Campeche,Carmen,4_3_3848,-92.31906333333333,18.630900833333335,La Flor,0.28101205825805664,0.6377492547035217,116,1.4497072286628714,0.7132903939268094,Golfo de México y Caribe
Campeche,Carmen,4_3_3884,-91.63012722222221,18.735503055555558,Las Gaviotas [Fraccionamiento],0.36311864852905273,0.6878198385238647,117,1.2812521309468898,0.6902495534077936,Golfo de México y Caribe
Campeche,Carmen,4_3_3885,-92.30367138888889,18.65972722222222,El Limonal,0.285317987203598,0.6388254165649414,118,1.433436086852087,0.711064870397942,Golfo de México y Caribe
Campeche,Carmen,4_3_3904,-91.27056222222222,18.289503055555556,El Pedacito,0.3839045464992523,0.7199302911758423,119,1.3318714390419915,0.6971731278250463,Golfo de México y Caribe
Campeche,Carmen,4_3_3922,-91.02166666666666,18.611685833333336,El Amanecer,0.36483779549598694,0.7724352478981018,120,1.6787537726703248,0.7446187714200528,Golfo de México y Caribe
Campeche,Carmen,4_3_3932,-92.31640777777777,18.67188,El Regalo,0.2833842635154724,0.6371580958366394,121,1.4350611519232963,0.7112871424790274,Golfo de México y Caribe
Campeche,Carmen,4_3_3941,-91.09176444444444,18.46610361111111,El Sacrificio,0.37653982639312744,0.7530493140220642,122,1.5274685055213506,0.7239263746893037,Golfo de México y Caribe
Campeche,Carmen,4_3_3982,-92.31147583333333,18.671741944444445,San Víctor,0.28432753682136536,0.6376979947090149,123,1.4329563182177583,0.7109992489193434,Golfo de México y Caribe
Campeche,Carmen,4_3_4012,-91.78622916666666,18.185142777777777,Tumbo de la Montaña 2,0.3686627149581909,0.6725975871086121,124,1.1806031208265486,0.6764830493243759,Golfo de México y Caribe
Campeche,Carmen,4_3_4098,-91.44533416666667,18.23128722222222,Los Tamarindos,0.3857136070728302,0.6949421763420105,125,1.202950538316777,0.679539669690192,Golfo de México y Caribe
Campeche,Carmen,4_3_4184,-91.18479583333334,18.395290555555555,Las Golondrinas,0.37984469532966614,0.737636923789978,126,1.437054081357691,0.7115597300699411,Golfo de México y Caribe
Campeche,Carmen,4_3_4225,-91.31921055555556,18.276931944444442,Cerrito la Bonita,0.3851858973503113,0.7130232453346252,127,1.292346560657355,0.6917670200150626,Golfo de México y Caribe
Campeche,Carmen,4_3_4519,-91.68323000000001,18.7089775,Punta del Este [Fraccionamiento],0.3615778982639313,0.6844511032104492,128,1.2727560224129701,0.6890874782648239,Golfo de México y Caribe
Campeche,Carmen,4_3_4564,-91.93530638888889,18.634301666666666,La Antorcha,0.3462444841861725,0.6699367761611938,129,1.27943530150721,0.6900010523060905,Golfo de México y Caribe
Campeche,Carmen,4_3_4615,-92.31588972222222,18.62817777777778,Ninguno [Rancho],0.2815609574317932,0.6381411552429199,130,1.4488554176710724,0.713173885483429,Golfo de México y Caribe
Campeche,Carmen,4_3_4634,-91.76782305555555,18.248491666666666,Río Verde 9 [Campo Menonita],0.3718828856945038,0.6770622134208679,131,1.1859978947759329,0.67722093216609,Golfo de México y Caribe
Campeche,Carmen,4_3_4638,-91.56555388888889,18.762056944444446,Villa Vista Delfín,0.3662794232368469,0.6935973763465881,132,1.2932431008244358,0.69188964639615,Golfo de México y Caribe
Campeche,Carmen,4_3_4642,-92.4351463888889,18.647703888888888,San Juanito,0.2598010301589966,0.6238473653793335,133,1.488585118157237,0.718608008316051,Golfo de México y Caribe
Campeche,Carmen,4_3_4644,-91.74787888888889,18.252304166666665,Río Verde 10 [Campo Menonita],0.37324652075767517,0.6782308220863342,134,1.1848175483274552,0.6770594875161785,Golfo de México y Caribe
Campeche,Carmen,4_3_4645,-91.75734777777778,18.241966666666666,Río Verde 2 [Campo Menonita],0.37230396270751953,0.6772421598434448,135,1.184765256633663,0.6770523351972908,Golfo de México y Caribe
Campeche,Carmen,4_3_4649,-91.73490444444444,18.249867222222225,Río Verde 3 [Campo Menonita],0.37401068210601807,0.6787225604057312,136,1.1833732421307077,0.6768619391534927,Golfo de México y Caribe
Campeche,Carmen,4_3_4654,-91.72571305555556,18.238670000000003,Río Verde 4 [Campo Menonita],0.3743482828140259,0.6785393357276917,137,1.1808133436840638,0.6765118030480632,Golfo de México y Caribe
Campeche,Champotón,4_4_1,-90.72389111111112,19.356218611111114,Champotón,0.2862524688243866,0.8188865780830383,138,2.2928772931850436,0.8286169542415264,Golfo de México y Caribe
Campeche,Champotón,4_4_3,-90.56472944444444,19.193471944444443,López Mateos (La Desconfianza),0.2696448266506195,0.8098192811012268,139,2.3320395417042104,0.8339734625023659,Golfo de México y Caribe
Campeche,Champotón,4_4_4,-90.46348333333334,19.377470833333334,Arellano,0.2591734230518341,0.8176709413528442,140,2.421846895685082,0.8462570736756937,Golfo de México y Caribe
Campeche,Champotón,4_4_5,-90.56864138888889,19.296993055555557,Canasayab,0.2667146325111389,0.8147816061973572,141,2.3704400990182455,0.8392257886647108,Golfo de México y Caribe
Campeche,Champotón,4_4_14,-90.44508777777779,19.513710833333334,Hool,0.25653553009033203,0.8266529440879822,142,2.4780823157625393,0.8539488049625031,Golfo de México y Caribe
Campeche,Champotón,4_4_16,-90.67524305555555,19.48297583333333,La Joya,0.27990472316741943,0.8226830363273621,143,2.3426960401571364,0.8354310300362316,Golfo de México y Caribe
Campeche,Champotón,4_4_17,-90.70270944444445,19.478346666666663,Ciudad del Sol,0.2844635844230652,0.8222246766090393,144,2.3178017698290647,0.8320260579086832,Golfo de México y Caribe
Campeche,Champotón,4_4_19,-90.67368583333334,19.352898055555556,Moquel,0.2780487835407257,0.8188675045967102,145,2.3336248631140752,0.8341902985510895,Golfo de México y Caribe
Campeche,Champotón,4_4_21,-90.66338416666667,19.481874444444443,La Noria,0.2779202461242676,0.8227454423904419,146,2.3528745261899173,0.836823216301807,Golfo de México y Caribe
Campeche,Champotón,4_4_24,-90.73243805555556,19.13168027777778,San Pablo Pixtún,0.28633201122283936,0.8096706867218018,147,2.2482552976293664,0.8225136762928112,Golfo de México y Caribe
Campeche,Champotón,4_4_30,-90.4993586111111,19.449863333333333,San Antonio Teop,0.25952985882759094,0.822087287902832,148,2.441266056707638,0.8489131749050443,Golfo de México y Caribe
Campeche,Champotón,4_4_33,-90.46925027777777,19.300733333333334,San Juan Carpizo,0.26172366738319397,0.8130372762680054,149,2.386914984352544,0.8414791796911827,Golfo de México y Caribe
Campeche,Champotón,4_4_36,-90.58435027777777,19.500454444444443,Sihochac,0.26796671748161316,0.8241333961486816,150,2.4090852278660075,0.8445115666713778,Golfo de México y Caribe
Campeche,Champotón,4_4_43,-90.73059916666666,19.218944722222222,Vicente Guerrero,0.2864573895931244,0.8140000700950623,151,2.2684073685097665,0.8252700229844742,Golfo de México y Caribe
Campeche,Champotón,4_4_52,-90.61297916666666,19.286588611111114,El Zapote,0.27064767479896545,0.8153586387634277,152,2.353629974395088,0.8369265444993607,Golfo de México y Caribe
Campeche,Champotón,4_4_62,-90.51199805555555,19.406600277777777,San José Carpizo Uno (San Fernando),0.26043128967285156,0.8193952441215515,153,2.4238597927176637,0.8465323923816144,Golfo de México y Caribe
Campeche,Champotón,4_4_63,-90.57744055555555,19.39528222222222,San José Carpizo Dos,0.2651340067386627,0.8193582892417908,154,2.400271662142941,0.8433060705778644,Golfo de México y Caribe
Campeche,Champotón,4_4_82,-90.62300083333332,19.272996388888888,Ulumal,0.27227696776390076,0.8149596452713013,155,2.343604399681972,0.8355552730376572,Golfo de México y Caribe
Campeche,Champotón,4_4_86,-90.70873388888889,19.04089,Dzacabuchén,0.28738823533058167,0.8054477572441101,156,2.2227319033249633,0.8190226542599653,Golfo de México y Caribe
Campeche,Champotón,4_4_91,-90.80725083333333,19.0631525,Ley Federal de Reforma Agraria,0.293880432844162,0.8055100440979004,157,2.190711736777011,0.8146430209877944,Golfo de México y Caribe
Campeche,Champotón,4_4_233,-90.66662083333334,19.464062777777777,El Porvenir,0.27795538306236267,0.8222152590751648,158,2.350155319681323,0.8364512904630982,Golfo de México y Caribe
Campeche,Champotón,4_4_239,-90.64017805555557,19.196181111111112,Nueva Esperanza Número 2 (Santo Domingo),0.2762720286846161,0.8118628263473511,159,2.3088551389944474,0.8308023615228933,Golfo de México y Caribe
Campeche,Champotón,4_4_243,-90.55416666666666,19.321944444444444,San Antonio del Río,0.2650131285190582,0.8156586289405823,160,2.3831191588134026,0.8409599967630839,Golfo de México y Caribe
Campeche,Champotón,4_4_521,-90.77247194444445,19.29159777777778,Villamar,0.2928791046142578,0.8161927461624146,161,2.2469615710841704,0.8223367238146302,Golfo de México y Caribe
Campeche,Champotón,4_4_564,-90.51218805555555,19.49977277777778,Santo Domingo Kesté,0.26037871837615967,0.8248962163925171,162,2.4505200449803635,0.8501789108242755,Golfo de México y Caribe
Campeche,Champotón,4_4_1680,-90.72978361111112,19.315459444444446,Los Almendros,0.2870769202709198,0.8176469206809998,163,2.2828240817683723,0.8272419027049679,Golfo de México y Caribe
Campeche,Champotón,4_4_1726,-90.73763722222222,19.129721111111113,Rancho Solo,0.28685277700424194,0.8095592260360718,164,2.2451279649329012,0.8220859280389077,Golfo de México y Caribe
Campeche,Champotón,4_4_1754,-90.72243666666667,19.09202611111111,José María Morelos y Pavón,0.28596529364585876,0.8077292442321777,165,2.2407641060630454,0.8214890510216426,Golfo de México y Caribe
Campeche,Champotón,4_4_1787,-90.90267972222223,19.17951777777778,Punta Xen,0.3060458302497864,0.8058704733848572,166,2.13188033355775,0.8065962180268634,Golfo de México y Caribe
Campeche,Champotón,4_4_1812,-91.09002972222221,19.021320555555555,Nohan (San Pablito),0.3306046426296234,0.7782296538352966,167,1.8769779318844695,0.771731345045872,Golfo de México y Caribe
Campeche,Champotón,4_4_1916,-90.83488305555555,19.2369175,La Guadalupe [Playa],0.2995244562625885,0.8119606375694275,168,2.193570662703391,0.8150340572770998,Golfo de México y Caribe
Campeche,Champotón,4_4_2148,-90.71237361111112,19.328208055555557,Villa de las Flores,0.28430500626564026,0.8181854486465454,169,2.2992073952291365,0.829482768773972,Golfo de México y Caribe
Campeche,Champotón,4_4_2176,-90.71606027777779,19.089695555555554,Nissi,0.28549903631210327,0.8076118230819702,170,2.242521709932741,0.8217294514073022,Golfo de México y Caribe
Campeche,Champotón,4_4_2356,-90.71915861111111,19.323863055555556,Tres de Mayo,0.28540119528770447,0.8180080652236938,171,2.292899168776198,0.82861994632674,Golfo de México y Caribe
Campeche,Hecelchakán,4_5_3,-90.24238194444445,20.24607361111111,Chunkanán,0.2668166756629944,0.875739336013794,172,2.6624613778720008,0.8791676830060305,Golfo de México y Caribe
Campeche,Hecelchakán,4_5_9,-90.22878055555556,20.167550833333333,Zodzil,0.2728184759616852,0.8731580376625061,173,2.6201962107960783,0.8733867657924251,Golfo de México y Caribe
Campeche,Palizada,4_7_29,-92.03724444444444,18.237728055555557,Ribera de la Corriente,0.348273903131485,0.6590787768363953,174,1.2172262549729775,0.6814922642701716,Golfo de México y Caribe
Campeche,Palizada,4_7_86,-91.858705,18.372624722222223,El Porvenir,0.36470291018486023,0.675180196762085,175,1.2127092392025656,0.680874438859133,Golfo de México y Caribe
Campeche,Palizada,4_7_108,-91.86508555555555,18.355973611111114,Puerto Arturo,0.36500850319862366,0.6744951009750366,176,1.2079002567711885,0.6802166790242427,Golfo de México y Caribe
Campeche,Palizada,4_7_109,-91.95139722222223,18.284803333333336,Ribera San Eduardo,0.3589547872543335,0.6670076251029968,177,1.2021049563846458,0.6794240132410363,Golfo de México y Caribe
Campeche,Palizada,4_7_110,-92.09526555555556,18.333492777777778,Santa Isabel,0.32980501651763916,0.6572898030281067,178,1.300581891889036,0.6928934267317675,Golfo de México y Caribe
Campeche,Palizada,4_7_154,-92.06547027777778,18.333156666666667,San Juan,0.33648911118507385,0.6596431136131287,179,1.278600798525331,0.6898869112063031,Golfo de México y Caribe
Campeche,Palizada,4_7_206,-92.05140888888889,18.340159999999997,Plan del Carmen,0.33877965807914734,0.6608734130859375,180,1.2731022015789994,0.6891348277310236,Golfo de México y Caribe
Campeche,Palizada,4_7_238,-92.00872722222222,18.265305555555557,Las Bodegas,0.35173824429512024,0.6622422337532043,181,1.2151613490822906,0.6812098319308767,Golfo de México y Caribe
Campeche,Palizada,4_7_320,-91.918575,18.332005555555554,Lagón Dulce,0.3606284558773041,0.6704161167144775,182,1.2101301645882687,0.6805216798884615,Golfo de México y Caribe
Campeche,Palizada,4_7_454,-91.78748888888889,18.182895000000002,Tumbo de la Montaña 1,0.3684998154640198,0.6723918914794922,183,1.1804269473612017,0.6764589527860474,Golfo de México y Caribe
Campeche,Palizada,4_7_521,-91.98876861111111,18.271676944444444,Ribera Gómez,0.3543584644794464,0.6639212965965271,184,1.2101751567937336,0.6805278338027376,Golfo de México y Caribe
Campeche,Palizada,4_7_753,-91.80551027777777,18.205108055555556,El Popistal [Rancho],0.36801087856292725,0.6728582978248596,185,1.1850991755578282,0.6770980077401956,Golfo de México y Caribe
Campeche,Palizada,4_7_885,-91.88300555555554,18.536560555555557,Atastillo (Los Chanes),0.3568631112575531,0.6743873953819275,186,1.2479322987508703,0.685692155322737,Golfo de México y Caribe
Campeche,Palizada,4_7_904,-91.84121583333332,18.415607777777776,Canales Uno,0.36461329460144043,0.676826536655426,187,1.2210559575033069,0.6820160808030816,Golfo de México y Caribe
Campeche,Palizada,4_7_923,-91.79793111111111,18.47667222222222,Ribera Boca Chica,0.3678581118583679,0.6799680590629578,188,1.2199786113224622,0.6818687242560066,Golfo de México y Caribe
Campeche,Tenabo,4_8_1,-90.22576333333333,20.039676944444444,Tenabo,0.27665504813194275,0.8681026101112366,189,2.5768367877424363,0.8674561791546737,Golfo de México y Caribe
Campeche,Tenabo,4_8_5,-90.22605666666666,19.965353333333333,Tinún,0.2765749394893646,0.8643775582313538,190,2.559359476393381,0.8650656789623097,Golfo de México y Caribe
Campeche,Tenabo,4_8_16,-90.34583277777777,19.955244166666667,Xkuncheil,0.2682299315929413,0.8583040833473206,191,2.571756181361068,0.8667612673178686,Golfo de México y Caribe
Campeche,Tenabo,4_8_96,-90.28420527777777,19.908437222222222,Nachehá,0.2707958221435547,0.8586530685424805,192,2.5606575571606296,0.8652432269994097,Golfo de México y Caribe
Campeche,Tenabo,4_8_98,-90.2438138888889,20.031246666666664,Santa Rosa,0.27527788281440735,0.8669728636741638,193,2.578270985150887,0.8676523448641652,Golfo de México y Caribe
Campeche,Tenabo,4_8_149,-90.25036472222222,20.057645555555556,Los Cocales,0.27432870864868164,0.8679200410842896,194,2.587541505376148,0.86892034197992285,Golfo de México y Caribe
Campeche,Escárcega,4_9_1116,-91.00357444444444,18.565181944444443,El Regalo,0.37056177854537964,0.7706044316291809,195,1.641473097805965,0.7395196198025741,Golfo de México y Caribe
Campeche,Seybaplaya,4_12_1,-90.68830111111112,19.639196944444443,Seybaplaya,0.29009029269218445,0.8278558850288391,196,2.316814756643627,0.8318910568686186,Golfo de México y Caribe
Campeche,Seybaplaya,4_12_16,-90.70118833333333,19.502635555555557,Haltunchén,0.28511929512023926,0.8228822350502014,197,2.317693098302504,0.8320111941061247,Golfo de México y Caribe
Campeche,Seybaplaya,4_12_55,-90.69850138888889,19.528409166666666,Villa Madero,0.28563112020492554,0.8236497640609741,198,2.3188284459811146,0.8321664839438985,Golfo de México y Caribe
Campeche,Seybaplaya,4_12_56,-90.62800472222222,19.628823333333333,Xkeulil,0.2794036269187927,0.8289377093315125,199,2.3752060375738373,0.83987766107268,Golfo de México y Caribe
Quintana Roo,Cozumel,23_1_1,-86.95758833333333,20.503784166666666,Cozumel,0.530878484249115,0.5822557806968689,200,-0.06046996931015869,0.5067323707756365,Golfo de México y Caribe
Quintana Roo,Cozumel,23_1_67,-86.99253694444444,20.367563333333333,El Cedral,0.5110172629356384,0.6147536039352417,201,0.19435537444153217,0.5415867039789295,Golfo de México y Caribe
Quintana Roo,Cozumel,23_1_165,-86.93079305555555,20.334318055555553,Buenavista,0.5144155025482178,0.6215329170227051,202,0.20997161696651612,0.5437226521241799,Golfo de México y Caribe
Quintana Roo,Cozumel,23_1_426,-86.90949222222223,20.47795222222222,La Estrella,0.5319154262542725,0.5898205041885376,203,-0.029329758665308514,0.5109916460182669,Golfo de México y Caribe
Quintana Roo,Cozumel,23_1_462,-86.91542666666668,20.48223611111111,Los Pinos,0.5319343209266663,0.5885999202728271,204,-0.03528126343043547,0.5101776150153425,Golfo de México y Caribe
Quintana Roo,Cozumel,23_1_494,-86.88325583333332,20.456498333333332,Nuestra Señora de Guadalupe,0.5315266847610474,0.5957533121109009,205,0.0010763267524805942,0.5151505095636137,Golfo de México y Caribe
Quintana Roo,Cozumel,23_1_498,-86.98315611111111,20.45476,Palmar Primero,0.5218619108200073,0.5948290228843689,206,0.044753373770144655,0.521124539962933,Golfo de México y Caribe
Quintana Roo,Cozumel,23_1_745,-86.93182083333333,20.540159722222224,Chichihualco,0.5379714369773865,0.5730926394462585,207,-0.13975256801819447,0.49588830765416964,Golfo de México y Caribe
Quintana Roo,Cozumel,23_1_754,-86.96948888888889,20.473206388888887,Huerto Familiar,0.52571040391922,0.5900964736938477,208,0.0028840634566302814,0.5153977669851191,Golfo de México y Caribe
Quintana Roo,Cozumel,23_1_800,-86.95966333333334,20.458551944444444,Pueblo Nuevo,0.524915337562561,0.5941956639289856,209,0.026513567016347883,0.5186297476757891,Golfo de México y Caribe
Quintana Roo,Cozumel,23_1_845,-86.90922194444445,20.475160555555554,Nueva Esperanza,0.5316131114959717,0.5905547142028809,210,-0.02430140221918642,0.5116794112478071,Golfo de México y Caribe
Quintana Roo,Cozumel,23_1_854,-86.9086688888889,20.477400277777775,La Esperanza,0.5319176912307739,0.5899782180786133,211,-0.028584182882922082,0.5110936238920726,Golfo de México y Caribe
Quintana Roo,Cozumel,23_1_858,-86.92083333333333,20.481944444444444,San Fernando,0.5314459800720215,0.5885841250419617,212,-0.03292603336699762,0.510499757123317,Golfo de México y Caribe
Quintana Roo,Cozumel,23_1_877,-86.91304972222223,20.472063055555555,La Selva,0.5309392809867859,0.5913065671920776,213,-0.017338921365081417,0.5126317208730499,Golfo de México y Caribe
Quintana Roo,Cozumel,23_1_891,-86.91297166666668,20.482770833333333,Ranchitos,0.5321992635726929,0.5885021686553955,214,-0.037069284236238786,0.509933054282009,Golfo de México y Caribe
Quintana Roo,Cozumel,23_1_893,-86.90435972222222,20.495333055555555,Quinta la Bonita,0.5343685746192932,0.5854296088218689,215,-0.06261328812236111,0.5064392133253549,Golfo de México y Caribe
Quintana Roo,Cozumel,23_1_899,-86.9893775,20.449739722222223,Varadero,0.5205147862434387,0.5960657596588135,216,0.05739450992310624,0.522853560966326,Golfo de México y Caribe
Quintana Roo,Cozumel,23_1_917,-86.90788583333334,20.486891944444444,Juan Leyenda Trigo,0.5330944061279297,0.5875169038772583,217,-0.04625360446965654,0.5086768473720196,Golfo de México y Caribe
Quintana Roo,Cozumel,23_1_928,-87.00638888888889,20.37361111111111,Villas Pavo Real,0.5100252032279968,0.6132763028144836,218,0.19220458616083214,0.5412925248746003,Golfo de México y Caribe
Quintana Roo,Cozumel,23_1_932,-86.91611111111112,20.498055555555556,Las Fincas,0.533790647983551,0.58451080322265625,219,-0.06414553223527042,0.5062296370482317,Golfo de México y Caribe
Quintana Roo,Cozumel,23_1_957,-86.8863888888889,20.45888888888889,El Refugio,0.5315564870834351,0.5951017737388611,220,-0.002198692505324229,0.5147025611343949,Golfo de México y Caribe
Quintana Roo,Cozumel,23_1_976,-86.88787166666667,20.459866944444443,San Carlos,0.5315535068511963,0.5948308706283569,221,-0.0034838899350804198,0.5145267752459537,Golfo de México y Caribe
Quintana Roo,Cozumel,23_1_987,-87.01279194444444,20.393506388888888,Mariposas,0.5113732814788818,0.6090268492698669,222,0.16510101479971584,0.5375853704239815,Golfo de México y Caribe
Quintana Roo,Cozumel,23_1_999,-86.90921027777779,20.471395555555553,La Esperanza,0.5311799645423889,0.5915399789810181,223,-0.017416961196989544,0.512621046792268,Golfo de México y Caribe
Quintana Roo,Cozumel,23_1_1014,-86.98447222222222,20.453388888888888,Cozumel,0.5215393900871277,0.5951740145683289,224,0.04801450357546666,0.5215705886297589,Golfo de México y Caribe
Quintana Roo,Cozumel,23_1_1032,-86.90112194444445,20.493623333333336,San Isidro,0.5344069004058838,0.5859234929084778,225,-0.06043398531056199,0.5067372925714574,Golfo de México y Caribe
Quintana Roo,Cozumel,23_1_1037,-87.01595,20.402894444444442,Las Glorias,0.5119240880012512,0.6069459915161133,226,0.15237322085146054,0.5358444965976809,Golfo de México y Caribe
Quintana Roo,Cozumel,23_1_1047,-86.90393222222222,20.49653138888889,Santa Teresa,0.5345431566238403,0.5851351618766785,227,-0.06489539959444957,0.5061270721839591,Golfo de México y Caribe
Quintana Roo,Cozumel,23_1_1049,-86.9023888888889,20.494365555555557,Carlos Eduardo Gómez,0.5344007015228271,0.5857119560241699,228,-0.06141826802513073,0.5066026649979408,Golfo de México y Caribe
Quintana Roo,Felipe Carrillo Puerto,23_2_455,-87.51747305555556,19.4059675,María Elena,0.5097697377204895,0.6052079200744629,229,0.15475707150584406,0.5361705533540125,Golfo de México y Caribe
Quintana Roo,Felipe Carrillo Puerto,23_2_456,-87.46224777777778,19.321010555555556,Punta Herrero,0.5121756792068481,0.6085151433944702,230,0.15865094710193783,0.5367031473082884,Golfo de México y Caribe
Quintana Roo,Felipe Carrillo Puerto,23_2_536,-87.61487,20.077825555555556,Chunyaxché,0.45956292748451233,0.5838406682014465,231,0.3021546185460558,0.5563311980616821,Golfo de México y Caribe
Quintana Roo,Felipe Carrillo Puerto,23_2_587,-87.66984333333333,20.022299444444442,Cecilio Chí (Kilómetro Sesenta y Cuatro),0.4628294110298157,0.5805471539497375,232,0.270088400033705,0.551945265924225,Golfo de México y Caribe
Quintana Roo,Felipe Carrillo Puerto,23_2_707,-87.86260333333333,19.76577222222222,Santa Amalia,0.496657133102417,0.581812858581543,233,0.10776320607055823,0.5297428573474952,Golfo de México y Caribe
Quintana Roo,Felipe Carrillo Puerto,23_2_738,-87.861459444444435,19.836201666666664,Tres Reyes,0.48877114057540894,0.5781288146972656,234,0.12934147747484048,0.5326942759560336,Golfo de México y Caribe
Quintana Roo,Felipe Carrillo Puerto,23_2_1072,-87.59236999999999,20.1106275,José María Pino Suárez,0.45803630352020264,0.5852131247520447,235,0.31634063183167355,0.5582715232530612,Golfo de México y Caribe
Quintana Roo,Isla Mujeres,23_3_1,-86.74609166666667,21.256569166666665,Isla Mujeres,0.5906838178634644,0.5051613450050354,236,-0.7281568419518413,0.4154079350193777,Golfo de México y Caribe
Quintana Roo,Isla Mujeres,23_3_92,-86.80119638888888,21.23368388888889,Punta Sam,0.5966096520423889,0.49839022755622864,237,-0.7901503078503399,0.40692863352981024,Golfo de México y Caribe
Quintana Roo,Isla Mujeres,23_3_93,-86.91110555555557,21.256741388888887,Rancho Viejo,0.6008864045143127,0.49281588196754456,238,-0.8381912395599369,0.40035772258135077,Golfo de México y Caribe
Quintana Roo,Isla Mujeres,23_3_177,-86.86708166666666,21.240538333333333,La Morena,0.6006115674972534,0.4939107596874237,239,-0.8315688675778699,0.40126351301907126,Golfo de México y Caribe
Quintana Roo,Isla Mujeres,23_3_180,-86.86385444444444,21.238994444444444,Centauros [Colonia],0.6005626320838928,0.49402278661727905,240,-0.8307876556040213,0.40137036511642565,Golfo de México y Caribe
Quintana Roo,Isla Mujeres,23_3_227,-86.8938888888889,21.248333333333335,San Francisco,0.601176917552948,0.4929937422275543,241,-0.8387839230968246,0.40027665690250325,Golfo de México y Caribe
Quintana Roo,Isla Mujeres,23_3_286,-86.85498972222221,21.22479722222222,Zona Urbana Ejido Isla Mujeres,0.6012151837348938,0.4940143823623657,242,-0.8340764807533751,0.40092052835405617,Golfo de México y Caribe
Quintana Roo,Isla Mujeres,23_3_352,-87.08748916666666,21.280075,Francisco May,0.592420756816864,0.4955873489379883,243,-0.7827480951824661,0.4079410885037516,Golfo de México y Caribe
Quintana Roo,Isla Mujeres,23_3_395,-86.80283333333333,21.222101666666664,Residencial Arrecifes,0.5975512862205505,0.49779385328292847,244,-0.7976998283024869,0.405896030188674,Golfo de México y Caribe
Quintana Roo,Isla Mujeres,23_3_421,-86.8025336111111,21.22610861111111,Escénica,0.5972501039505005,0.4979649782180786,245,-0.7953792912724428,0.4062134270757534,Golfo de México y Caribe
Quintana Roo,Isla Mujeres,23_3_427,-86.88876,21.249547222222223,Mecades,0.600827157497406,0.4932992458343506,246,-0.8355766909292315,0.40071533359369815,Golfo de México y Caribe
Quintana Roo,Isla Mujeres,23_3_435,-86.79787777777777,21.329485555555554,El Dorado,0.5894942283630371,0.5058947205543518,247,-0.718715511304727,0.41669929513062964,Golfo de México y Caribe
Quintana Roo,Isla Mujeres,23_3_448,-86.87083333333332,21.229999999999997,Tres de Septiembre,0.6017863154411316,0.4932531714439392,248,-0.8405726201396804,0.40003200367526304,Golfo de México y Caribe
Quintana Roo,Isla Mujeres,23_3_469,-86.88132805555554,21.243165555555557,La Providencia,0.6011306047439575,0.493285208940506,249,-0.8371546555544866,0.4004995037864195,Golfo de México y Caribe
Quintana Roo,Isla Mujeres,23_3_470,-86.80292416666667,21.32483472222222,San Germán,0.5901246666908264,0.5049574971199036,250,-0.7263515516056664,0.41565485783454165,Golfo de México y Caribe
Quintana Roo,Isla Mujeres,23_3_471,-86.86011527777777,21.239552222222223,Santa María Ecab,0.6002880334854126,0.49427559971809387,251,-0.8282074435518451,0.40172327966282706,Golfo de México y Caribe
Quintana Roo,Isla Mujeres,23_3_475,-86.86141333333333,21.242876111111112,La Victoria,0.6000672578811646,0.4943731725215912,252,-0.8266401506120888,0.40193764982532804,Golfo de México y Caribe
Quintana Roo,Isla Mujeres,23_3_476,-86.80653861111111,21.24086666666667,La Amada [Residencial],0.5965261459350586,0.4982779026031494,253,-0.7902736374498316,0.4069117648349967,Golfo de México y Caribe
Quintana Roo,Isla Mujeres,23_3_478,-86.86966416666667,21.24119888888889,El Alba [Colonia],0.6006982326507568,0.4937974810600281,254,-0.8325439102703636,0.40113014927121454,Golfo de México y Caribe
Quintana Roo,Isla Mujeres,23_3_500,-86.86532416666667,21.24115,Minas de Rancho Viejo,0.6004534363746643,0.49404507875442505,255,-0.8301370865255371,0.40145934822579543,Golfo de México y Caribe
Quintana Roo,Isla Mujeres,23_3_535,-86.87190861111111,21.24313666666667,La Luna,0.6006401181221008,0.4937793016433716,256,-0.8323418489253038,0.4011577866849212,Golfo de México y Caribe
Quintana Roo,Isla Mujeres,23_3_555,-86.89687388888889,21.24855527777778,Cytzae,0.601276159286499,0.492878794670105,257,-0.8398295827840621,0.4001336343498025,Golfo de México y Caribe
Quintana Roo,Isla Mujeres,23_3_557,-86.83845166666666,21.222496666666665,La Fortaleza,0.60025787353515625,0.4950621724128723,258,-0.8242826295009305,0.4022601052967202,Golfo de México y Caribe
Quintana Roo,Othón P. Blanco,23_4_1,-88.29789888888888,18.493889444444445,Chetumal,0.5032861232757568,0.6217629909515381,259,0.2664793341915951,0.5514516274910867,Golfo de México y Caribe
Quintana Roo,Othón P. Blanco,23_4_8,-88.55312972222222,18.38207361111111,Allende,0.50565338134765625,0.6240574717521667,260,0.26570574425141147,0.551345817915238,Golfo de México y Caribe
Quintana Roo,Othón P. Blanco,23_4_16,-88.25258277777777,18.556224444444446,Calderitas,0.5010009407997131,0.6206268072128296,261,0.27240287709248967,0.5522618339445428,Golfo de México y Caribe
Quintana Roo,Othón P. Blanco,23_4_37,-88.42350944444445,18.517701388888888,Huay-Pix,0.4999825954437256,0.6210873126983643,262,0.27968225762364174,0.553257488265306,Golfo de México y Caribe
Quintana Roo,Othón P. Blanco,23_4_39,-88.48019805555556,18.4938325,Juan Sarabia,0.500421404838562,0.6215623021125793,263,0.2797772231960596,0.5532704774038867,Golfo de México y Caribe
Quintana Roo,Othón P. Blanco,23_4_50,-88.26513305555555,18.690011944444446,Laguna Guerrero,0.4960232079029083,0.6181460618972778,264,0.28527791620890486,0.5540228475735727,Golfo de México y Caribe
Quintana Roo,Othón P. Blanco,23_4_53,-87.70839305555556,18.716683333333332,Mahahual,0.5038058161735535,0.6242035031318665,265,0.27560397216015653,0.5526996712195219,Golfo de México y Caribe
Quintana Roo,Othón P. Blanco,23_4_67,-88.52927333333334,18.446758333333335,Palmar,0.5020041465759277,0.6226035952568054,266,0.27689516003194803,0.5528762764647025,Golfo de México y Caribe
Quintana Roo,Othón P. Blanco,23_4_73,-88.5310175,18.41945666666667,Ramonal,0.5036928653717041,0.6232155561447144,267,0.27142521110440954,0.5521281113892883,Golfo de México y Caribe
Quintana Roo,Othón P. Blanco,23_4_75,-87.66745722222223,18.808625833333334,Río Indio,0.5014674067497253,0.6233620643615723,268,0.28320693413856457,0.5537395841505749,Golfo de México y Caribe
Quintana Roo,Othón P. Blanco,23_4_98,-88.39491166666667,18.495053333333335,Subteniente López,0.5017867684364319,0.6215916275978088,269,0.27312098048674893,0.5523600542181208,Golfo de México y Caribe
Quintana Roo,Othón P. Blanco,23_4_104,-88.51943833333333,18.50574138888889,Ucum,0.49836328625679016,0.6212841272354126,270,0.28868789770091063,0.5544892557784616,Golfo de México y Caribe
Quintana Roo,Othón P. Blanco,23_4_107,-88.37016722222222,18.5146525,Rancho de los Vallejo,0.5016327500343323,0.6212099194526672,271,0.27205593149867746,0.5522143796483879,Golfo de México y Caribe
Quintana Roo,Othón P. Blanco,23_4_110,-88.51995555555555,18.46557138888889,Sacxán,0.5012368559837341,0.6221787929534912,272,0.2786762624305338,0.5531198909166857,Golfo de México y Caribe
Quintana Roo,Othón P. Blanco,23_4_111,-87.835195,18.273864444444442,Xcalak,0.5250763297080994,0.6301429867744446,273,0.19821926977235516,0.5421151973122079,Golfo de México y Caribe
Quintana Roo,Othón P. Blanco,23_4_114,-88.46601583333333,18.55431111111111,Xul-Ha,0.4964071214199066,0.620254635810852,274,0.29348554879904554,0.5551454657437094,Golfo de México y Caribe
Quintana Roo,Othón P. Blanco,23_4_136,-88.52910888888889,18.50042138888889,Carlos A. Madrazo,0.4983265995979309,0.6213971972465515,275,0.28941313927803936,0.5545884523937197,Golfo de México y Caribe
Quintana Roo,Othón P. Blanco,23_4_190,-88.25900583333333,18.586123055555554,San Fernando,0.4999716579914093,0.6200286746025085,276,0.27465642108725796,0.5525700677023219,Golfo de México y Caribe
Quintana Roo,Othón P. Blanco,23_4_216,-88.46763333333334,18.537312500000002,Arco Iris,0.49755334854125977,0.6206223964691162,277,0.28954431054179286,0.5546063936505281,Golfo de México y Caribe
Quintana Roo,Othón P. Blanco,23_4_225,-88.21912722222223,18.657210555555555,Luis Echeverría Álvarez,0.49680423736572266,0.6188660860061646,278,0.28484515589442583,0.553963655768017,Golfo de México y Caribe
Quintana Roo,Othón P. Blanco,23_4_264,-88.25452194444445,18.709197222222222,Raudales,0.4949027895927429,0.6178467273712158,279,0.28941904385099504,0.5545892600055145,Golfo de México y Caribe
Quintana Roo,Othón P. Blanco,23_4_365,-88.37768555555554,18.517173888888887,Xóchitl,0.5013569593429565,0.6211458444595337,280,0.273121367767021,0.5523601071892871,Golfo de México y Caribe
Quintana Roo,Othón P. Blanco,23_4_681,-88.35311222222222,18.509813333333334,Sac-Nicté,0.5020960569381714,0.6213377118110657,281,0.27036278554222304,0.5519827956447749,Golfo de México y Caribe
Quintana Roo,Othón P. Blanco,23_4_824,-88.37246888888889,18.515785555555556,Kilómetro Ocho,0.5015388131141663,0.6211826801300049,282,0.27239284429072697,0.5522604616845844,Golfo de México y Caribe
Quintana Roo,Othón P. Blanco,23_4_840,-88.41515000000001,18.523007777777778,Parque Industrial,0.49997463822364807,0.6209814548492432,283,0.2792138699186095,0.5531934234399665,Golfo de México y Caribe
Quintana Roo,Othón P. Blanco,23_4_843,-88.37525722222222,18.51665638888889,Hermanos Martínez,0.5014387965202332,0.6211602687835693,284,0.2727831914684561,0.5523138523340277,Golfo de México y Caribe
Quintana Roo,Othón P. Blanco,23_4_919,-88.34889749999999,18.508524166666668,San Marcos,0.502193808555603,0.6213713884353638,285,0.27003777453346456,0.5519383415028626,Golfo de México y Caribe
Quintana Roo,Othón P. Blanco,23_4_926,-88.25888111111111,18.546886111111114,Missie,0.5013324022293091,0.6207929253578186,286,0.27154999761034515,0.5521451793558928,Golfo de México y Caribe
Quintana Roo,Othón P. Blanco,23_4_959,-88.46763444444444,18.54042638888889,La Flor,0.4973338842391968,0.6205544471740723,287,0.29031075376889826,0.5547112257179577,Golfo de México y Caribe
Quintana Roo,Othón P. Blanco,23_4_1221,-88.26808777777778,18.54861055555556,Xkan-Lol,0.5013070106506348,0.6207301616668701,288,0.2713752045996175,0.552121271632478,Golfo de México y Caribe
Quintana Roo,Othón P. Blanco,23_4_1297,-88.43507722222222,18.517215555555556,Las Tres Balbinas,0.4996892213821411,0.6210874915122986,289,0.28114357315348926,0.5534573631193632,Golfo de México y Caribe
Quintana Roo,Othón P. Blanco,23_4_1319,-88.5200575,18.492004444444447,Ucum [Galeras],0.4993683099746704,0.6215866804122925,290,0.28513666654299397,0.5540035278197051,Golfo de México y Caribe
Quintana Roo,Othón P. Blanco,23_4_1493,-88.40007194444445,18.518527499999998,Las Carmelitas,0.5006621479988098,0.621091902256012,291,0.2763213740083368,0.552797795537492,Golfo de México y Caribe
Quintana Roo,Othón P. Blanco,23_4_1609,-88.46262194444445,18.523933055555556,El Naranjal,0.4986090660095215,0.6209187507629395,292,0.28571097101050547,0.5540820796582941,Golfo de México y Caribe
Quintana Roo,Othón P. Blanco,23_4_1627,-88.36183805555555,18.5127125,El Porvenir,0.5018641352653503,0.6212632656097412,293,0.2711600653966796,0.5520918454641311,Golfo de México y Caribe
Quintana Roo,Othón P. Blanco,23_4_1675,-87.71647277777778,18.693572222222222,Punta Tam,0.5048328638076782,0.6244602203369141,294,0.2717231411889498,0.5521688614743661,Golfo de México y Caribe
Quintana Roo,Othón P. Blanco,23_4_1729,-88.26074527777777,18.562709166666668,San Cristobal Uno,0.5008007884025574,0.6204728484153748,295,0.2726604330427582,0.5522970617628475,Golfo de México y Caribe
Quintana Roo,Othón P. Blanco,23_4_1821,-88.34280944444444,18.524134444444442,El Paraíso,0.5017801523208618,0.6210570931434631,296,0.2705887459380971,0.5520137019071294,Golfo de México y Caribe
Quintana Roo,Othón P. Blanco,23_4_1873,-88.51469166666666,18.507675,Juan Sarabia,0.49840298295021057,0.6212438941001892,297,0.2882972076927214,0.5544358182375791,Golfo de México y Caribe
Quintana Roo,Othón P. Blanco,23_4_1895,-88.46702888888889,18.539907222222222,Manuel Vega Herrera,0.4973887503147125,0.6205663681030273,298,0.2900948299053794,0.5546816922258221,Golfo de México y Caribe
Quintana Roo,Othón P. Blanco,23_4_1907,-88.33969888888889,18.546952500000003,Chiquiná,0.5010532736778259,0.6205906271934509,299,0.27196873282155654,0.5522024528451017,Golfo de México y Caribe
Quintana Roo,Othón P. Blanco,23_4_1908,-87.70993222222222,18.735225,La Victoria [Rancho],0.5025820136070251,0.6237828135490417,300,0.27967739198174957,0.5532568227557406,Golfo de México y Caribe
Quintana Roo,Othón P. Blanco,23_4_1909,-88.24626472222222,18.569234444444444,Los Amigos [Rancho],0.5005300641059875,0.6203927993774414,301,0.2736239904460527,0.5524288545833751,Golfo de México y Caribe
Quintana Roo,Othón P. Blanco,23_4_1911,-88.29415916666666,18.557468888888888,El Cielo,0.5013176798820496,0.6204777359962463,302,0.27011072936437963,0.5519483200707243,Golfo de México y Caribe
Quintana Roo,Othón P. Blanco,23_4_1916,-88.33413444444444,18.545258888888892,Villas Bugambilias II (Chintok),0.5012093186378479,0.620636522769928,303,0.27141216671060653,0.5521263272117755,Golfo de México y Caribe
Quintana Roo,Othón P. Blanco,23_4_1942,-88.37925055555554,18.50973888888889,El Ciruelo,0.5016071200370789,0.6213001608848572,304,0.27261657968286257,0.5522910636168414,Golfo de México y Caribe
Quintana Roo,Othón P. Blanco,23_4_1987,-88.33461944444444,18.530350833333333,Las Palomas,0.5016982555389404,0.6209433674812317,305,0.2704506830448279,0.5519948180315534,Golfo de México y Caribe
Quintana Roo,Othón P. Blanco,23_4_2018,-88.46581972222222,18.560480555555557,José Rafael,0.49597442150115967,0.620121955871582,306,0.2950028739216001,0.5553530014409859,Golfo de México y Caribe
Quintana Roo,Othón P. Blanco,23_4_2091,-88.35149888888888,18.51631777777778,San Isidro Dos,0.501907467842102,0.6212047934532166,307,0.27066374844461094,0.5520239605506169,Golfo de México y Caribe
Quintana Roo,Othón P. Blanco,23_4_2198,-87.70085222222222,18.75765138888889,El Makulí,0.501745879650116,0.6235758662223816,308,0.2828466677914926,0.5536903078771952,Golfo de México y Caribe
Quintana Roo,Othón P. Blanco,23_4_2428,-87.63346333333334,18.900224444444444,El Placer,0.5017921924591064,0.6219866275787354,309,0.2749895392555407,0.5526156307199654,Golfo de México y Caribe
Quintana Roo,Othón P. Blanco,23_4_2486,-87.75055916666666,18.65509611111111,Rancho Gabriela,0.5060380101203918,0.6243489384651184,310,0.2651897238699812,0.5512752380190264,Golfo de México y Caribe
Quintana Roo,Othón P. Blanco,23_4_2502,-88.33753499999999,18.499880555555556,El Esfuerzo,0.5026184320449829,0.621568500995636,311,0.26886985988903445,0.5517785972420655,Golfo de México y Caribe
Quintana Roo,Othón P. Blanco,23_4_2549,-88.42581916666667,18.626331944444445,Akal-Ki [Centro Holístico],0.49339452385902405,0.618836522102356,312,0.30167731640364714,0.5562659139432924,Golfo de México y Caribe
Quintana Roo,Othón P. Blanco,23_4_2564,-88.440425,18.586094444444445,Laguna Bonanza,0.4953373968601227,0.6196198463439941,313,0.29576450541545585,0.5554571753723311,Golfo de México y Caribe
Quintana Roo,Othón P. Blanco,23_4_2863,-88.29432861111111,18.55552861111111,El Edén,0.5013787746429443,0.6205161809921265,314,0.26999108423022045,0.5519319553272857,Golfo de México y Caribe
Quintana Roo,Othón P. Blanco,23_4_2864,-88.350105,18.536576944444445,Fraternidad Antorchista,0.5012331008911133,0.6207849979400635,315,0.27200629088290507,0.5522075899369053,Golfo de México y Caribe
Quintana Roo,Othón P. Blanco,23_4_2865,-88.32781583333333,18.53574111111111,Mártires Antorchistas,0.501625120639801,0.6208451390266418,316,0.2703433716143483,0.5519801402593217,Golfo de México y Caribe
Quintana Roo,Othón P. Blanco,23_4_2866,-88.30159138888888,18.556139166666668,Paraíso,0.5014374256134033,0.6204847097396851,317,0.2695480844461904,0.5518713629943008,Golfo de México y Caribe
Quintana Roo,Othón P. Blanco,23_4_2867,-87.71319333333334,18.737021944444447,Alcaldía Mahahual [Kilómetro Cincuenta y Cuatro],0.5022959113121033,0.6236613988876343,318,0.28051899427056237,0.5533719348798609,Golfo de México y Caribe
Quintana Roo,Othón P. Blanco,23_4_2919,-87.6544413888889,18.84481138888889,Las Artistas,0.5012098550796509,0.6228795647621155,319,0.28217360153757853,0.5535982476639667,Golfo de México y Caribe
Quintana Roo,Othón P. Blanco,23_4_2934,-88.42738083333334,18.52681861111111,Mi Ranchito,0.499388724565506,0.620887815952301,320,0.28168126818223826,0.5535309076162246,Golfo de México y Caribe
Quintana Roo,Othón P. Blanco,23_4_2978,-87.72271500000001,18.72323583333333,Divina Esperanza,0.5026538372039795,0.6236957311630249,321,0.2789019454544436,0.55315075924084,Golfo de México y Caribe
Quintana Roo,Othón P. Blanco,23_4_3039,-88.37410388888888,18.514108333333333,La Ranita Feliz,0.5015643239021301,0.6212155818939209,322,0.27242373984401136,0.5522646874962436,Golfo de México y Caribe
Quintana Roo,Othón P. Blanco,23_4_3082,-88.37771388888888,18.511180555555555,Juan Borges,0.5015894770622253,0.6212720274925232,323,0.2725693999240867,0.5522846104948379,Golfo de México y Caribe
Quintana Roo,Othón P. Blanco,23_4_3085,-88.43071111111112,18.520652777777777,Los Tres Hermanos,0.4996196925640106,0.621017336845398,324,0.28115303308151485,0.5534586570231744,Golfo de México y Caribe
Quintana Roo,Othón P. Blanco,23_4_3086,-88.34773333333332,18.53317222222222,Pedro García,0.5013976693153381,0.6208601593971252,325,0.27154773742317795,0.5521448702134996,Golfo de México y Caribe
Quintana Roo,Othón P. Blanco,23_4_3102,-87.74211833333334,18.68658361111111,Hermanos Flores Magón,0.5041780471801758,0.6239465475082397,326,0.27251785272218,0.5522775600055714,Golfo de México y Caribe
Quintana Roo,Othón P. Blanco,23_4_3117,-88.4164913888889,18.52775722222222,Juan Lerdo Olaya,0.49969518184661865,0.6208785176277161,327,0.2801110590397057,0.553316138583259,Golfo de México y Caribe
Quintana Roo,Othón P. Blanco,23_4_3126,-88.38184666666666,18.511052222222222,Rio Hondo,0.5014914274215698,0.62126922607421875,328,0.2730440611626015,0.5523495333974123,Golfo de México y Caribe
Quintana Roo,Othón P. Blanco,23_4_3130,-88.41467472222223,18.5348225,UAIM [Unidad Agrícola Industrial de la Mujer],0.4994010329246521,0.6207293272018433,329,0.2808594258137662,0.5534184982014875,Golfo de México y Caribe
Quintana Roo,Othón P. Blanco,23_4_3178,-87.65415,18.84133222222222,Playa Vanesa,0.501334011554718,0.6229701042175293,330,0.28199002173387777,0.553573138106364,Golfo de México y Caribe
Quintana Roo,Othón P. Blanco,23_4_3212,-88.33005888888889,18.54868527777778,Villas Bugambilias Uno,0.5011677145957947,0.6205745935440063,331,0.2713220861307649,0.552114006229495,Golfo de México y Caribe
Quintana Roo,Othón P. Blanco,23_4_3238,-88.35170805555555,18.520915833333333,Las Palmas,0.5017511248588562,0.62110835313797,332,0.27097923966166515,0.552067112600723,Golfo de México y Caribe
Quintana Roo,Benito Juárez,23_5_1,-86.8248111111111,21.16141611111111,Cancún,0.6026486158370972,0.4951011538505554,333,-0.8359970140736033,0.40065784291121226,Golfo de México y Caribe
Quintana Roo,Benito Juárez,23_5_2,-86.84748083333334,21.08811833333333,Alfredo V. Bonfil,0.6057091355323792,0.4955286681652069,334,-0.8491811194817225,0.39885455601628833,Golfo de México y Caribe
Quintana Roo,Benito Juárez,23_5_16,-87.07397,21.051313888888888,Candelaria (Santa Julia),0.626991331577301,0.49388301372528076,335,-0.9630242004457513,0.3832834019921572,Golfo de México y Caribe
Quintana Roo,Benito Juárez,23_5_202,-86.94286166666667,21.122219444444443,Las Arboledas,0.6143869757652283,0.490395724773407,336,-0.9170130469691186,0.38957668526897715,Golfo de México y Caribe
Quintana Roo,Benito Juárez,23_5_207,-86.96636194444444,21.109409444444445,Huertos del Ramonal,0.6169357895851135,0.490468829870224,337,-0.9293505782461007,0.38788919053355164,Golfo de México y Caribe
Quintana Roo,Benito Juárez,23_5_237,-86.97416361111111,21.106921944444444,Bosques del Caribe,0.6177292466163635,0.4904850423336029,338,-0.9332227173830865,0.38735956963437795,Golfo de México y Caribe
Quintana Roo,Benito Juárez,23_5_492,-87.05115944444444,21.06257638888889,Emiliano Zapata,0.625572681427002,0.4927622973918915,339,-0.9613401512454072,0.3835137417656483,Golfo de México y Caribe
Quintana Roo,Benito Juárez,23_5_531,-86.8513711111111,21.055310555555558,Lagos del Sol,0.6052574515342712,0.4969981610774994,340,-0.8398806422868965,0.40012665056671876,Golfo de México y Caribe
Quintana Roo,Benito Juárez,23_5_784,-86.94073305555555,21.122745000000002,Campestre Santa María,0.6141819357872009,0.4904254972934723,341,-0.9158494541006226,0.3897358384087491,Golfo de México y Caribe
Quintana Roo,Benito Juárez,23_5_952,-86.99316,21.095795,Eben Ezer,0.6197794675827026,0.49085789918899536,342,-0.9416397083202256,0.3862083159860046,Golfo de México y Caribe
Quintana Roo,Benito Juárez,23_5_1140,-87.00464944444444,21.070595555555556,Colonia Chiapaneca Siglo XXI,0.6207166314125061,0.4920080602169037,343,-0.9407855489991798,0.38632514562761755,Golfo de México y Caribe
Quintana Roo,Benito Juárez,23_5_1156,-87.00099555555556,21.078058055555555,El Porvenir,0.6204741597175598,0.4916430711746216,344,-0.9413300319430336,0.38625067269777,Golfo de México y Caribe
Quintana Roo,Benito Juárez,23_5_1415,-86.87122694444444,21.005193055555555,Cancún Country Club,0.6036198139190674,0.4995433986186981,345,-0.819513943820684,0.402912353449098,Golfo de México y Caribe
Quintana Roo,Benito Juárez,23_5_1482,-86.8090111111111,21.030730833333333,Península Resort,0.6003404259681702,0.5010610818862915,346,-0.7959054977830009,0.4061414539478741,Golfo de México y Caribe
Quintana Roo,Benito Juárez,23_5_1503,-87.04540444444444,21.06703222222222,Tres Marías,0.625083863735199,0.4924337863922119,347,-0.9604832350923416,0.3836309484794174,Golfo de México y Caribe
Quintana Roo,Benito Juárez,23_5_1521,-86.96150555555556,21.11012777777778,Del Parque,0.6164702773094177,0.4905020296573639,348,-0.9268738705052622,0.38822794803535837,Golfo de México y Caribe
Quintana Roo,Benito Juárez,23_5_1523,-87.04883138888889,21.083460833333334,Sac-Nicté,0.6253785490989685,0.49170878529548645,349,-0.9654294187812446,0.3829544226211978,Golfo de México y Caribe
Quintana Roo,Benito Juárez,23_5_1541,-87.05780416666667,21.080798333333334,Gregorio Pech [Rancho],0.6261865496635437,0.49198663234710693,350,-0.9681184028228678,0.38258663053119124,Golfo de México y Caribe
Quintana Roo,Benito Juárez,23_5_1548,-87.04775055555555,21.075397777777777,La Conchita [Rancho],0.6253522634506226,0.492048054933548,351,-0.9636704484256335,0.38319500991116895,Golfo de México y Caribe
Quintana Roo,Benito Juárez,23_5_1574,-86.8631575,20.967276666666667,Ninguno,0.5991973876953125,0.503079354763031,352,-0.7805298284810132,0.4082444971271166,Golfo de México y Caribe
Quintana Roo,Benito Juárez,23_5_1617,-87.04749166666666,21.066569722222223,Éxito Familiar [Templo],0.6252837181091309,0.49248871207237244,353,-0.961214556191331,0.38353092032331837,Golfo de México y Caribe
Quintana Roo,Benito Juárez,23_5_1682,-86.99306888888889,21.084045,La Ceiba,0.619720995426178,0.49138006567955017,354,-0.9388428076426464,0.3865908686266393,Golfo de México y Caribe
Quintana Roo,Benito Juárez,23_5_1821,-86.98878361111112,21.084543888888888,Don Sebastián,0.6192821860313416,0.4913688898086548,355,-0.9367119843792673,0.3868823169689655,Golfo de México y Caribe
Quintana Roo,Benito Juárez,23_5_1822,-87.02379611111111,21.087819166666666,El Roble,0.6228825449943542,0.4912295639514923,356,-0.9553036877339212,0.38433939320008276,Golfo de México y Caribe
Quintana Roo,Lázaro Cárdenas,23_7_8,-87.33571388888889,21.43259888888889,Chiquilá,0.5052937865257263,0.5440804958343506,357,-0.11630462110536421,0.4990954555092483,Golfo de México y Caribe
Quintana Roo,Lázaro Cárdenas,23_7_9,-87.19207805555556,20.845832777777776,Delirios,0.5724688172340393,0.5155383348464966,358,-0.5876819990707651,0.43462171065241767,Golfo de México y Caribe
Quintana Roo,Lázaro Cárdenas,23_7_11,-87.25264805555555,20.772437222222223,Héroe de Nacozari,0.5484084486961365,0.5282767415046692,359,-0.4067759182599281,0.4593655635449576,Golfo de México y Caribe
Quintana Roo,Lázaro Cárdenas,23_7_12,-87.37872666666667,21.52319861111111,Holbox,0.4843340516090393,0.5627389550209045,360,0.0775757323716898,0.5256138949320014,Golfo de México y Caribe
Quintana Roo,Lázaro Cárdenas,23_7_23,-87.4314825,21.23545388888889,San Ángel,0.4998433291912079,0.5394763350486755,361,-0.11126632425465188,0.49978458036090717,Golfo de México y Caribe
Quintana Roo,Lázaro Cárdenas,23_7_26,-87.33698666666666,21.399546944444445,San Eusebio,0.5088376402854919,0.5399981737136841,362,-0.1535370275502257,0.494002905917893,Golfo de México y Caribe
Quintana Roo,Lázaro Cárdenas,23_7_38,-87.42917055555556,21.351985000000003,Solferino,0.4846811592578888,0.5524415373802185,363,0.026431636768573408,0.5186185414742657,Golfo de México y Caribe
Quintana Roo,Lázaro Cárdenas,23_7_298,-87.34712972222222,20.71617611111111,Laguna Costa Rica,0.5155982971191406,0.5431498289108276,364,-0.17206809249606236,0.4914682761093939,Golfo de México y Caribe
Quintana Roo,Lázaro Cárdenas,23_7_378,-87.10116749999999,21.3155825,Chechen Ha,0.5832729935646057,0.499514639377594,365,-0.7183626170959425,0.4167475630625292,Golfo de México y Caribe
Quintana Roo,Lázaro Cárdenas,23_7_383,-87.34608944444444,21.38963,Paraíso,0.5069159269332886,0.540347695350647,366,-0.14229315278848242,0.4955408132220573,Golfo de México y Caribe
Quintana Roo,Lázaro Cárdenas,23_7_446,-87.13141694444444,21.363583333333334,Zarco Grande,0.5690528750419617,0.5076007843017578,367,-0.6087683664676173,0.43173757336655527,Golfo de México y Caribe
Quintana Roo,Lázaro Cárdenas,23_7_467,-87.28527777777778,20.71861111111111,San Carlos,0.5279204249382019,0.5384822487831116,368,-0.25580857138376656,0.48001447598581026,Golfo de México y Caribe
Quintana Roo,Lázaro Cárdenas,23_7_473,-87.24906111111112,20.689286111111112,Jungla Maya,0.5258369445800781,0.5413514971733093,369,-0.23166751342575276,0.48331642572738903,Golfo de México y Caribe
Quintana Roo,Lázaro Cárdenas,23_7_475,-87.26711861111112,20.782251111111112,Eben Ezer,0.5495108366012573,0.5278176069259644,370,-0.41446709561714457,0.45831358474886397,Golfo de México y Caribe
Quintana Roo,Lázaro Cárdenas,23_7_487,-87.27227666666667,20.740133055555557,La Unión,0.5367401242256165,0.5342843532562256,371,-0.31985950408728714,0.4712537596553123,Golfo de México y Caribe
Quintana Roo,Solidaridad,23_8_1,-87.07549999999999,20.6281425,Playa del Carmen,0.5375765562057495,0.549347996711731,372,-0.2517346559065611,0.4805716953164862,Golfo de México y Caribe
Quintana Roo,Solidaridad,23_8_179,-87.19223166666667,20.522640555555554,Paa Mul,0.5025700330734253,0.5745575428009033,373,0.04351051534711414,0.5209545450912964,Golfo de México y Caribe
Quintana Roo,Solidaridad,23_8_232,-87.1240461111111,20.58413694444444,El Ranchito,0.5223671793937683,0.559821367263794,374,-0.1257597118026904,0.497802213334902,Golfo de México y Caribe
Quintana Roo,Solidaridad,23_8_241,-87.30276833333333,20.42891777777778,San Antonio,0.47911545634269714,0.5894690155982971,375,0.23182917826219207,0.5467122712617224,Golfo de México y Caribe
Quintana Roo,Solidaridad,23_8_265,-87.24872805555556,20.490584444444444,San José,0.4916640818119049,0.5805573463439941,376,0.12659425753782683,0.5323185185150441,Golfo de México y Caribe
Quintana Roo,Solidaridad,23_8_272,-87.23800833333334,20.50084222222222,San Mateo,0.49389055371284485,0.5787244439125061,377,0.10671467479445362,0.5295994420265017,Golfo de México y Caribe
Quintana Roo,Solidaridad,23_8_285,-87.28824833333333,20.443587222222224,Grand Palladium,0.4820249676704407,0.5878365635871887,378,0.20951126793478525,0.5436596868072082,Golfo de México y Caribe
Quintana Roo,Solidaridad,23_8_308,-87.2351913888889,20.512781944444445,Puerto Aventuras,0.4953855276107788,0.5763213038444519,379,0.08774008615016748,0.5270041482253961,Golfo de México y Caribe
Quintana Roo,Solidaridad,23_8_314,-86.95426833333333,20.782248055555556,Tigre Grande,0.5722855925559998,0.5215343832969666,380,-0.557995521165845,0.4386821481948409,Golfo de México y Caribe
Quintana Roo,Solidaridad,23_8_331,-87.39263472222223,20.456149444444442,Uxuxubi,0.46966639161109924,0.5809934139251709,381,0.2381944984517066,0.5475829028384904,Golfo de México y Caribe
Quintana Roo,Solidaridad,23_8_370,-87.10932638888889,20.730272222222222,Arbolada II,0.5537087321281433,0.5293963551521301,382,-0.4277885766165116,0.4564915079857077,Golfo de México y Caribe
Quintana Roo,Solidaridad,23_8_483,-87.31121722222223,20.425791944444445,San Martín,0.4779230058193207,0.5894541144371033,383,0.2376938560218289,0.5475144262976183,Golfo de México y Caribe
Quintana Roo,Solidaridad,23_8_555,-87.23692944444444,20.516060833333334,San Ángel,0.49550557136535645,0.5756165385246277,384,0.083760402211975,0.5264598176341629,Golfo de México y Caribe
Quintana Roo,Solidaridad,23_8_572,-87.22005388888888,20.524845,El Sauce,0.49872809648513794,0.5738887786865234,385,0.05942689361397957,0.5231315450055731,Golfo de México y Caribe
Quintana Roo,Solidaridad,23_8_578,-87.32071194444444,20.52572861111111,La Selva,0.4850321114063263,0.5730608701705933,386,0.12363439791919473,0.5319136767835901,Golfo de México y Caribe
Quintana Roo,Solidaridad,23_8_626,-87.13599083333334,20.659265277777777,El Sol,0.5357097387313843,0.5432304739952087,387,-0.27179867636692945,0.47782739192724083,Golfo de México y Caribe
Quintana Roo,Solidaridad,23_8_640,-87.04486972222222,20.769500277777777,Vida y Esperanza,0.5661712288856506,0.522398829460144,388,-0.523408977603119,0.4434128036937701,Golfo de México y Caribe
Quintana Roo,Solidaridad,23_8_642,-87.28221277777777,20.45962111111111,Santa Teresita,0.4842865467071533,0.5853230953216553,389,0.18619095831166477,0.5404699968413614,Golfo de México y Caribe
Quintana Roo,Solidaridad,23_8_646,-87.347635,20.579355,San Carlos,0.4877351224422455,0.5644887089729309,390,0.06904159416309819,0.5244466181912112,Golfo de México y Caribe
Quintana Roo,Solidaridad,23_8_647,-87.3716961111111,20.5700125,Pacto Obrero,0.4826340675354004,0.5662975311279297,391,0.10311569767858031,0.5291071835025226,Golfo de México y Caribe
Quintana Roo,Solidaridad,23_8_818,-86.95805555555556,20.76,Playa Paraíso,0.5683359503746033,0.5247870683670044,392,-0.5227243773234442,0.44350644150038526,Golfo de México y Caribe
Quintana Roo,Solidaridad,23_8_829,-87.09717333333333,20.73575888888889,Nuevo Noh-Bec,0.5557951331138611,0.5282754302024841,393,-0.44355416704233663,0.45433513243154067,Golfo de México y Caribe
Quintana Roo,Solidaridad,23_8_835,-87.29545916666666,20.42823361111111,Grand Sirenis,0.4800049364566803,0.589999258518219,394,0.22994579682093141,0.5464546673541355,Golfo de México y Caribe
Quintana Roo,Solidaridad,23_8_839,-87.13783833333333,20.66274,El Regalo de Mis Padres,0.5361813902854919,0.5425587296485901,395,-0.2773702495583287,0.4770653269551289,Golfo de México y Caribe
Quintana Roo,Solidaridad,23_8_868,-87.15076722222223,20.662770277777778,Tres Reyes,0.5343104600906372,0.542840838432312,396,-0.26670268718308154,0.4785244077828823,Golfo de México y Caribe
Quintana Roo,Solidaridad,23_8_885,-87.16334722222223,20.675244444444445,Ninguno,0.5352556705474854,0.5406573414802551,397,-0.2818864334240926,0.47644761532979674,Golfo de México y Caribe
Quintana Roo,Solidaridad,23_8_899,-87.03950916666666,20.764007777777778,Los Arcos,0.5654159784317017,0.5232270359992981,398,-0.5156747647230633,0.4444706687742911,Golfo de México y Caribe
Quintana Roo,Solidaridad,23_8_909,-87.10651194444443,20.740614166666667,Paraíso,0.5559947490692139,0.5275953412055969,399,-0.4478115537214721,0.45375281839752357,Golfo de México y Caribe
Quintana Roo,Solidaridad,23_8_916,-87.05432,20.792877500000003,Yaman Ek,0.57039642333984375,0.5190814733505249,400,-0.5603622085098021,0.4383584389904901,Golfo de México y Caribe
Quintana Roo,Solidaridad,23_8_920,-87.11218055555555,20.607147222222224,El Pitayo,0.5286334156990051,0.5543718934059143,401,-0.18310532906047483,0.4899586322286249,Golfo de México y Caribe
Quintana Roo,Solidaridad,23_8_924,-87.13242055555556,20.72509861111111,Los Pájaros,0.5504580140113831,0.5307496190071106,402,-0.4051118832537135,0.45959316583017246,Golfo de México y Caribe
Quintana Roo,Solidaridad,23_8_926,-87.12887222222221,20.722846666666666,Valle Encantado,0.5503363013267517,0.5310598611831665,403,-0.40301716317686787,0.4598796760746054,Golfo de México y Caribe
Quintana Roo,Solidaridad,23_8_927,-87.08312777777778,20.75380277777778,Jacinto Canek (Campesinos Unidos),0.5604417324066162,0.5251063108444214,404,-0.48189383918467005,0.4490911339811509,Golfo de México y Caribe
Quintana Roo,Solidaridad,23_8_928,-87.12374166666666,20.611797222222222,Torres de la Paz,0.5277397632598877,0.5534216165542603,405,-0.18321687261866015,0.4899433755972144,Golfo de México y Caribe
Quintana Roo,Solidaridad,23_8_929,-87.11833083333333,20.65731111111111,Paseos del Parque,0.5377709269523621,0.5433173775672913,406,-0.2816425213693574,0.47648097697233543,Golfo de México y Caribe
Quintana Roo,Solidaridad,23_8_945,-87.01614777777777,20.776728055555555,Santa Cecilia,0.5690471529960632,0.5214411616325378,407,-0.5423214729072572,0.4408260028546885,Golfo de México y Caribe
Quintana Roo,Solidaridad,23_8_946,-87.01317472222222,20.798711111111114,Santa Cecilia,0.5734361410140991,0.5183744430541992,408,-0.5788873100383092,0.43582462484236284,Golfo de México y Caribe
Quintana Roo,Solidaridad,23_8_949,-87.24113333333334,20.52097583333333,Belfast,0.4954906105995178,0.5745516419410706,409,0.0787245605213096,0.5257710285927694,Golfo de México y Caribe
Quintana Roo,Solidaridad,23_8_950,-87.24978527777778,20.519503055555553,Monte Sinahí,0.4942311942577362,0.5747745037078857,410,0.08606360101318,0.5267748430443859,Golfo de México y Caribe
Quintana Roo,Tulum,23_9_1,-87.46320472222223,20.210776666666668,Tulum,0.462079793214798,0.5960949659347534,411,0.34843229772360446,0.5626609360154592,Golfo de México y Caribe
Quintana Roo,Tulum,23_9_5,-87.3224361111111,20.400935277777776,Akumal,0.47572600841522217,0.5923575162887573,412,0.2625639164380025,0.5509160870577662,Golfo de México y Caribe
Quintana Roo,Tulum,23_9_7,-87.32462444444444,20.381918055555555,Akumal Sur,0.4747554361820221,0.5948666334152222,413,0.2794365316344185,0.5532238785176294,Golfo de México y Caribe
Quintana Roo,Tulum,23_9_16,-87.3286111111111,20.3725,Aventuras Akumal,0.47393786907196045,0.5958239436149597,414,0.2881005195034989,0.5544089157498462,Golfo de México y Caribe
Quintana Roo,Tulum,23_9_18,-87.3346661111111,20.370382222222222,Gran Bahía Príncipe,0.4731835126876831,0.5955899357795715,415,0.2907328347056707,0.5547689568266161,Golfo de México y Caribe
Quintana Roo,Tulum,23_9_20,-87.37416666666665,20.28611111111111,Bahías de Punta Solimán,0.4682210385799408,0.6011111736297607,416,0.34193252731103263,0.5617719146945445,Golfo de México y Caribe
Quintana Roo,Tulum,23_9_21,-87.39306666666667,20.2825,Balam Canché,0.4664546251296997,0.5992766618728638,417,0.3419223675675477,0.5617705250718347,Golfo de México y Caribe
Quintana Roo,Tulum,23_9_53,-87.35383944444443,20.342556944444443,Chan Chemuyil,0.47033604979515076,0.5972908735275269,418,0.31307051449846135,0.557824245296059,Golfo de México y Caribe
Quintana Roo,Tulum,23_9_55,-87.35434305555555,20.347011666666667,Ciudad Chemuyil,0.4703544080257416,0.5967268347740173,419,0.3102723663341097,0.5574415220274994,Golfo de México y Caribe
Quintana Roo,Tulum,23_9_73,-87.5023188888889,20.28777777777778,Las Dos Hermanas,0.45579588413238525,0.5870417356491089,420,0.336269052541015,0.5609972796687794,Golfo de México y Caribe
Quintana Roo,Tulum,23_9_76,-87.38370777777779,20.32396333333333,Dos Palmas,0.46715736389160156,0.5962948203086853,421,0.3241145139233035,0.5593348141829022,Golfo de México y Caribe
Quintana Roo,Tulum,23_9_92,-87.59008472222222,20.36439027777778,Francisco Uh May,0.44394180178642273,0.5766487717628479,422,0.3454056845238605,0.5622469639066089,Golfo de México y Caribe
Quintana Roo,Tulum,23_9_104,-87.36787555555554,20.316052222222222,Jacinto Pat,0.4687229096889496,0.5987779498100281,423,0.3282372644849072,0.5598987130466205,Golfo de México y Caribe
Quintana Roo,Tulum,23_9_106,-87.47648,19.800345555555555,Javier Rojo Gómez (Punta Allen),0.49081963300704956,0.6035851836204529,424,0.24130603423389685,0.5480084904324469,Golfo de México y Caribe
Quintana Roo,Tulum,23_9_115,-87.52908555555555,20.305494444444445,El Pequeño Paraíso,0.4525047540664673,0.5836132168769836,425,0.336199687256113,0.5609877920694807,Golfo de México y Caribe
Quintana Roo,Tulum,23_9_122,-87.46825972222223,20.257643055555555,Kirabo,0.45992177724838257,0.5925375819206238,426,0.3421037210194586,0.5617953301149572,Golfo de México y Caribe
Quintana Roo,Tulum,23_9_133,-87.57595416666666,20.350775833333334,Macario Gómez,0.44583940505981445,0.578055202960968,427,0.34270845256315874,0.5618780436881534,Golfo de México y Caribe
Quintana Roo,Tulum,23_9_223,-87.50565583333334,20.288801944444447,Alfa y Mega,0.4554460644721985,0.5866579413414001,428,0.33616871855010466,0.5609835562521863,Golfo de México y Caribe
Quintana Roo,Tulum,23_9_240,-87.39507916666668,20.261858888888888,Tankah Tres,0.4664244055747986,0.6008638739585876,429,0.34968965639402283,0.5628329141923923,Golfo de México y Caribe
Quintana Roo,Tulum,23_9_245,-87.48385916666666,20.268550833333332,Tres Hermanos,0.45817503333091736,0.5901148915290833,430,0.3391730407000716,0.5613944794504967,Golfo de México y Caribe
Quintana Roo,Tulum,23_9_342,-87.48072333333333,20.288575833333336,Balam Luum,0.45779949426651,0.5891438126564026,431,0.33638242919743533,0.5610127870264943,Golfo de México y Caribe
Quintana Roo,Tulum,23_9_353,-87.45833333333334,20.228888888888886,Cenote Calavera,0.46180039644241333,0.5955665111541748,432,0.3472871793939603,0.5625043097740069,Golfo de México y Caribe
Quintana Roo,Tulum,23_9_383,-87.48400166666667,20.281654166666666,India Blanca,0.45768219232559204,0.589262068271637,433,0.3375338701379323,0.5611702780578538,Golfo de México y Caribe
Quintana Roo,Tulum,23_9_385,-87.496775,20.283869722222224,La Ceiba,0.45644038915634155,0.5878257155418396,434,0.33682284670959767,0.5610730261631965,Golfo de México y Caribe
Quintana Roo,Tulum,23_9_407,-87.52182638888888,20.1907125,La Unión,0.4580991268157959,0.5900097489356995,435,0.33904634659298266,0.5613771505672767,Golfo de México y Caribe
Quintana Roo,Tulum,23_9_465,-87.54845666666667,20.176515555555557,La Unión,0.45658713579177856,0.5875799655914307,436,0.33491299500829697,0.5608118017237984,Golfo de México y Caribe
Quintana Roo,Tulum,23_9_469,-87.52509666666667,20.302096388888888,Yolis,0.4530491530895233,0.5841352343559265,437,0.3359946951529232,0.5609597537944667,Golfo de México y Caribe
Quintana Roo,Tulum,23_9_474,-87.50578055555556,20.28989055555556,Cafeto Cimarrón,0.4553973376750946,0.5865818858146667,438,0.3360463055257534,0.5609668129240842,Golfo de México y Caribe
Quintana Roo,Tulum,23_9_499,-87.48328361111112,20.28279611111111,India Blanca,0.4577123522758484,0.5892618894577026,439,0.33738287154741553,0.5611496248719908,Golfo de México y Caribe
Quintana Roo,Tulum,23_9_507,-87.32274888888888,20.378313055555555,Punta Sur,0.47481095790863037,0.595519483089447,440,0.28229308854328716,0.5536145907790161,Golfo de México y Caribe
Quintana Roo,Tulum,23_9_515,-87.50218305555556,20.287457222222223,Paraíso [Rancho],0.4558192193508148,0.5870741009712219,441,0.33630820406237555,0.5610026347098082,Golfo de México y Caribe
Quintana Roo,Tulum,23_9_519,-87.38738888888889,20.290083333333335,Yax'muul [Rancho],0.4669623076915741,0.5992223024368286,442,0.33913418743291834,0.5613891652038858,Golfo de México y Caribe
Quintana Roo,Tulum,23_9_523,-87.51681555555555,20.297462222222222,Árboles Tulum,0.4540577232837677,0.5851203203201294,443,0.33570120693305705,0.5609196112558328,Golfo de México y Caribe
Quintana Roo,Tulum,23_9_545,-87.50722777777777,20.201910277777777,Cristal [Colonia],0.4588637351989746,0.5911875367164612,444,0.3408920889127378,0.5616296062958672,Golfo de México y Caribe
Quintana Roo,Tulum,23_9_548,-87.47676638888889,20.245591666666666,Cachito de Cielo,0.45965495705604553,0.592315673828125,445,0.3423670776529072,0.5618313513352895,Golfo de México y Caribe
Quintana Roo,Tulum,23_9_579,-87.49156944444445,20.22656972222222,Marités,0.45929262042045593,0.5917141437530518,446,0.34128416556148267,0.5616832334977593,Golfo de México y Caribe
Quintana Roo,Tulum,23_9_580,-87.49379694444444,20.204663611111112,Don Brígido,0.45990055799484253,0.5926602482795715,447,0.3427980154630123,0.5618902938635411,Golfo de México y Caribe
Quintana Roo,Tulum,23_9_585,-87.3721486111111,20.339894722222223,Océano Azul,0.46838346123695374,0.595801830291748,448,0.3156450251127749,0.5581763800149437,Golfo de México y Caribe
Quintana Roo,Tulum,23_9_589,-87.51842194444444,20.29770027777778,Kilómetro Doce,0.4538891911506653,0.5849623084068298,449,0.33578190230742544,0.5609306485546539,Golfo de México y Caribe
Quintana Roo,Tulum,23_9_591,-87.51085583333334,20.288946666666668,Lum Ha [Lotes],0.454945832490921,0.586152970790863,450,0.33623564718017235,0.5609927105723135,Golfo de México y Caribe
Quintana Roo,Tulum,23_9_592,-87.50535277777777,20.292296111111114,Kilómetro Diez Punto Cinco,0.4553578495979309,0.5864809155464172,451,0.33575833781960274,0.560927425466643,Golfo de México y Caribe
Quintana Roo,Bacalar,23_10_1,-88.38935277777779,18.676146666666668,Bacalar,0.492296427488327,0.6179872155189514,452,0.3030680684669681,0.5564561373139528,Golfo de México y Caribe
Quintana Roo,Bacalar,23_10_4,-88.38696972222223,18.707325555555556,Aarón Merino [Colonia],0.4903305768966675,0.6174303889274597,453,0.3101822017934376,0.5574291895612797,Golfo de México y Caribe
Quintana Roo,Bacalar,23_10_9,-88.11184944444445,19.0027675,Anastacio Valdez Huchin,0.46944138407707214,0.6136163473129272,454,0.39586839228251547,0.5691491189460796,Golfo de México y Caribe
Quintana Roo,Bacalar,23_10_22,-88.23846805555556,18.883604722222223,Buenavista,0.4746566414833069,0.6150112152099609,455,0.376599919535447,0.5665136284585269,Golfo de México y Caribe
Quintana Roo,Bacalar,23_10_30,-88.1766688888889,19.0370925,Chacchoben,0.46789422631263733,0.6126338839530945,456,0.39885563090892384,0.5695577055054448,Golfo de México y Caribe
Quintana Roo,Bacalar,23_10_31,-88.11749999999999,18.959722222222222,Chula Vista,0.46941640973091125,0.6143308281898499,457,0.39942143116981854,0.5696350941612567,Golfo de México y Caribe
Quintana Roo,Bacalar,23_10_77,-88.13024305555555,19.031398333333332,El Pedregal,0.4680509567260742,0.6130098700523376,458,0.3998797196700501,0.5696977776442068,Golfo de México y Caribe
Quintana Roo,Bacalar,23_10_144,-88.46027777777778,18.746666666666666,La Nueva Esperanza,0.4822085499763489,0.6164922714233398,459,0.34611287638903043,0.5623436917302407,Golfo de México y Caribe
Quintana Roo,Bacalar,23_10_174,-88.21262083333333,18.978648055555553,Lázaro Cárdenas,0.4687228798866272,0.6134647727012634,460,0.39871781794636196,0.5695388558147267,Golfo de México y Caribe
Quintana Roo,Bacalar,23_10_177,-88.1094786111111,19.02431888888889,Limones,0.46904465556144714,0.6132566332817078,461,0.39611713571307017,0.5691831414113613,Golfo de México y Caribe
Quintana Roo,Bacalar,23_10_209,-88.34449388888888,18.83269611111111,Miguel Hidalgo y Costilla,0.4779267907142639,0.6153969168663025,462,0.3621715945298246,0.5645401605141399,Golfo de México y Caribe
Quintana Roo,Bacalar,23_10_251,-88.16551666666668,18.954056388888887,Pedro Antonio Santos,0.46945446729660034,0.614162266254425,463,0.3984230655449752,0.5694985403647045,Golfo de México y Caribe
Quintana Roo,Bacalar,23_10_258,-87.56416666666667,19.066666666666666,Punta Pulticub,0.5084057450294495,0.6181488633155823,464,0.22364934508869305,0.5455934554219043,Golfo de México y Caribe
Quintana Roo,Bacalar,23_10_279,-88.47277777777778,18.674166666666668,Salamanca,0.48708680272102356,0.6178032159805298,465,0.32811932170515135,0.5598825811466924,Golfo de México y Caribe
Quintana Roo,Bacalar,23_10_292,-88.37028722222222,18.8106425,San Isidro la Laguna,0.4801162779331207,0.6156543493270874,466,0.3525074079219299,0.5632183187569143,Golfo de México y Caribe
Quintana Roo,Bacalar,23_10_335,-88.32023111111111,18.790593611111113,Xtomoc Uno,0.4864993393421173,0.6162189245223999,467,0.32344096133153255,0.5592426874496742,Golfo de México y Caribe
Quintana Roo,Bacalar,23_10_356,-88.23017555555556,18.8971025,Kilómetro 49 más 870,0.47352099418640137,0.6148093938827515,468,0.38128481405296144,0.5671544158783798,Golfo de México y Caribe
Quintana Roo,Bacalar,23_10_423,-88.40509055555556,18.703725,Antorcha Bacalar,0.48943081498146057,0.6174356937408447,469,0.314686800605817,0.5580453166138025,Golfo de México y Caribe
Quintana Roo,Puerto Morelos,23_11_1,-86.87617722222221,20.8484525,Puerto Morelos,0.5841087698936462,0.5151615738868713,470,-0.6474353570707007,0.42644880516710293,Golfo de México y Caribe
Quintana Roo,Puerto Morelos,23_11_14,-86.93560694444444,20.869644722222223,Angélica Dorantes Ordoñez,0.5885413885116577,0.5106105208396912,471,-0.6913415470306883,0.42044343320518507,Golfo de México y Caribe
Quintana Roo,Puerto Morelos,23_11_33,-87.04894527777778,20.86303888888889,Central Vallarta,0.5868773460388184,0.5100902915000916,472,-0.6855542309711895,0.42123500691336024,Golfo de México y Caribe
Quintana Roo,Puerto Morelos,23_11_187,-86.92179527777779,20.84036638888889,Las Sábilas [Rancho],0.5831073522567749,0.5145444869995117,473,-0.6454114892620035,0.4267256244266209,Golfo de México y Caribe
Quintana Roo,Puerto Morelos,23_11_338,-86.91270916666667,20.811544722222223,Punta Brava,0.5778956413269043,0.518643856048584,474,-0.5997944484985084,0.4329650020140729,Golfo de México y Caribe
Quintana Roo,Puerto Morelos,23_11_460,-86.95301805555556,20.85884666666667,Rogelio Molina,0.5868174433708191,0.5114315152168274,475,-0.678819645838499,0.42215614556756514,Golfo de México y Caribe
Quintana Roo,Puerto Morelos,23_11_540,-86.87694083333332,20.906103888888886,Aldea Kin,0.5928192138671875,0.5085234642028809,476,-0.7226527136961787,0.4161607750524455,Golfo de México y Caribe
Quintana Roo,Puerto Morelos,23_11_541,-86.87690055555555,20.903378055555553,Aldea Ha,0.5924636721611023,0.5088176131248474,477,-0.7194711895081087,0.416595935474532,Golfo de México y Caribe
Tabasco,Cárdenas,27_2_2,-93.61568861111111,18.38108777777778,El Alacrán,0.19816158711910248,0.5757277011871338,478,1.564514115709809,0.7289933747852047,Golfo de México y Caribe
Tabasco,Cárdenas,27_2_3,-93.62590694444444,18.173916944444446,Poblado C-11 José María Morelos y Pavón,0.1747063845396042,0.5673527121543884,479,1.6410867926079964,0.739466782004379,Golfo de México y Caribe
Tabasco,Cárdenas,27_2_4,-93.56403999999999,18.112064444444446,Poblado C-15 Adolfo López Mateos,0.16907136142253876,0.5648435354232788,480,1.657097475915,0.741656680711387,Golfo de México y Caribe
Tabasco,Cárdenas,27_2_12,-93.61834416666666,18.255837777777778,Azucena 1ra. Sección,0.183126300573349,0.5721240639686584,481,1.6220684427575651,0.7368655026618123,Golfo de México y Caribe
Tabasco,Cárdenas,27_2_13,-93.6487463888889,18.26808833333333,Azucena 2da. Sección,0.18549279868602753,0.5717077851295471,482,1.6082900065003278,0.7349809247730523,Golfo de México y Caribe
Tabasco,Cárdenas,27_2_14,-93.6843875,18.281080833333334,Azucena 3ra. Sección (El Triunfo),0.18813833594322205,0.5711451172828674,483,1.5924199697365458,0.7328102633263935,Golfo de México y Caribe
Tabasco,Cárdenas,27_2_17,-94.03228527777777,18.23111222222222,El Barí 2da. Sección,0.20020996034145355,0.5620103478431702,484,1.4884889949597548,0.7185948608405909,Golfo de México y Caribe
Tabasco,Cárdenas,27_2_18,-93.73093805555555,18.116611944444447,El Bronce,0.1716376394033432,0.5605612397193909,485,1.6237719288100951,0.7370985009562829,Golfo de México y Caribe
Tabasco,Cárdenas,27_2_19,-93.85381888888888,18.09677222222222,Buenavista 1ra. Sección,0.17433176934719086,0.5557293891906738,486,1.5871726650491031,0.7320925509383607,Golfo de México y Caribe
Tabasco,Cárdenas,27_2_22,-93.86345138888888,18.29391388888889,Coronel Andrés Sánchez Magallanes,0.19722618162631989,0.5672656297683716,487,1.5285621705943817,0.7240759632910769,Golfo de México y Caribe
Tabasco,Cárdenas,27_2_23,-93.73786555555556,18.089450277777775,Campo Nuevo,0.16921323537826538,0.5581063032150269,488,1.6240599905495903,0.7371379012753551,Golfo de México y Caribe
Tabasco,Cárdenas,27_2_25,-93.49736416666667,18.111495833333336,Poblado C-16 General Emiliano Zapata,0.16792118549346924,0.5670633316040039,489,1.6734757650619092,0.7438968595680965,Golfo de México y Caribe
Tabasco,Cárdenas,27_2_26,-93.77599555555555,18.173481111111112,El Capricho,0.17911159992218018,0.5634612441062927,490,1.6004822937677035,0.7339130065780566,Golfo de México y Caribe
Tabasco,Cárdenas,27_2_29,-93.90825000000001,18.177341944444446,Benito Juárez (Campo Magallanes),0.18683341145515442,0.5607745051383972,491,1.549148670760749,0.7268917300657797,Golfo de México y Caribe
Tabasco,Cárdenas,27_2_30,-93.48998388888889,18.176235833333333,Poblado C-09 Licenciado Francisco I. Madero,0.1721450239419937,0.5718160271644592,492,1.6752565515020006,0.7441404308041165,Golfo de México y Caribe
Tabasco,Cárdenas,27_2_31,-94.12584,18.205208888888887,Cuauhtemoczín,0.20079514384269714,0.5596718192100525,493,1.4743535341037943,0.7166614500761739,Golfo de México y Caribe
Tabasco,Cárdenas,27_2_32,-93.86022805555555,18.216630833333333,Chicozapote 1ra. Sección,0.187814399600029,0.5641120672225952,494,1.5602817572051193,0.7284144840383644,Golfo de México y Caribe
Tabasco,Cárdenas,27_2_34,-93.56791722222222,18.174747777777778,Poblado C-10 General Lázaro Cárdenas del Río,0.17357692122459412,0.569206178188324,495,1.6556039944227439,0.7414524062824872,Golfo de México y Caribe
Tabasco,Cárdenas,27_2_35,-93.55635111111111,18.255457222222223,Encrucijada 3ra. Sección (Las Calzadas),0.18102146685123444,0.5741623044013977,496,1.6423278873930087,0.7396365356502951,Golfo de México y Caribe
Tabasco,Cárdenas,27_2_36,-93.54256166666667,18.212479444444444,Encrucijada 4ta. Sección B (La Lucha),0.17606587707996368,0.5723479986190796,497,1.6582908629975426,0.7418199090245644,Golfo de México y Caribe
Tabasco,Cárdenas,27_2_37,-93.61165388888888,18.226152777777777,Encrucijada 5ta. Sección,0.17944298684597015,0.5708690881729126,498,1.6343820103859852,0.7385497197130818,Golfo de México y Caribe
Tabasco,Cárdenas,27_2_38,-93.77159361111111,18.20160027777778,Las Flores (La Palma),0.18206848204135895,0.5652196407318115,499,1.594200864788756,0.7330538494180906,Golfo de México y Caribe
Tabasco,Cárdenas,27_2_40,-93.5312961111111,18.3280025,El Golpe,0.1886739581823349,0.5775759816169739,500,1.620614558725665,0.7366666442682918,Golfo de México y Caribe
Tabasco,Cárdenas,27_2_41,-93.54263944444445,18.34060611111111,El Mingo,0.1905549019575119,0.5773691534996033,501,1.610258410756021,0.7352501578752102,Golfo de México y Caribe
Tabasco,Cárdenas,27_2_42,-93.74156,18.153649444444444,Ignacio Gutiérrez Gómez (San Felipe),0.175649493932724,0.5630448460578918,502,1.6157188980481512,0.7359970288132819,Golfo de México y Caribe
Tabasco,Cárdenas,27_2_49,-93.719220000000007,18.165876666666666,El Jobo (Punta Brava),0.1762821078300476,0.5643834471702576,503,1.6189934525442675,0.7364449136736323,Golfo de México y Caribe
Tabasco,Cárdenas,27_2_53,-93.60458916666666,18.213669444444445,Naranjeño 1ra. Sección (Colonia la Fe),0.1779877245426178,0.5704019665718079,504,1.6393848473815325,0.7392339944600022,Golfo de México y Caribe
Tabasco,Cárdenas,27_2_54,-93.62833944444444,18.214986944444444,Naranjeño 2da. Sección A,0.17875126004219055,0.5697259306907654,505,1.6323396401869652,0.7382703697457942,Golfo de México y Caribe
Tabasco,Cárdenas,27_2_55,-93.66427805555556,18.226987777777776,Naranjeño 3ra. Sección,0.1810183823108673,0.5692914128303528,506,1.6189683838813194,0.7364414848485457,Golfo de México y Caribe
Tabasco,Cárdenas,27_2_57,-93.67692111111111,18.16374361111111,Nueva Esperanza,0.17491014301776886,0.565331220626831,507,1.6303715445489608,0.7380011788555434,Golfo de México y Caribe
Tabasco,Cárdenas,27_2_59,-94.0003886111111,18.24185027777778,Ojoshal,0.19969967007637024,0.5629748702049255,508,1.4956579257432678,0.7195754081384427,Golfo de México y Caribe
Tabasco,Cárdenas,27_2_60,-93.95162388888889,18.257584444444444,Paylebot,0.19860313832759857,0.5643528699874878,509,1.5077294807141337,0.7212265233416716,Golfo de México y Caribe
Tabasco,Cárdenas,27_2_61,-93.7091963888889,18.122098055555558,Poblado C-23 General Venustiano Carranza,0.17157486081123352,0.5615783929824829,510,1.6289656531746508,0.7378088847701655,Golfo de México y Caribe
Tabasco,Cárdenas,27_2_63,-93.50018055555556,18.292405277777778,Santuario 3ra. Sección (Piedras Negras),0.18369092047214508,0.577539324760437,511,1.6452449105592897,0.7400355183256538,Golfo de México y Caribe
Tabasco,Cárdenas,27_2_64,-93.76653194444444,18.116286666666667,El Porvenir,0.17261536419391632,0.5595815777778625,512,1.6142033899517667,0.7357897416440152,Golfo de México y Caribe
Tabasco,Cárdenas,27_2_65,-93.49860222222222,18.20935861111111,Poza Redonda 1ra. Sección,0.17477552592754364,0.5735890865325928,513,1.670670253669567,0.7435131291767834,Golfo de México y Caribe
Tabasco,Cárdenas,27_2_66,-93.47670722222223,18.237990833333335,Poza Redonda 2da. Sección,0.1770244687795639,0.5758488774299622,514,1.6703191806376787,0.743465110340619,Golfo de México y Caribe
Tabasco,Cárdenas,27_2_67,-93.87882527777776,18.191300277777778,Chicozapote 2da. Sección (El Retiro),0.18618342280387878,0.5622575283050537,515,1.5595012666281947,0.7283077306117639,Golfo de México y Caribe
Tabasco,Cárdenas,27_2_74,-93.55136666666667,18.308292222222224,Francisco Trujillo Gurría,0.18695014715194702,0.5764809250831604,516,1.6239408802730315,0.7371216096883174,Golfo de México y Caribe
Tabasco,Cárdenas,27_2_78,-93.43139861111112,18.17469861111111,Santana 2da. Sección B (La Palma),0.171188622713089,0.5736820101737976,517,1.6889722934154974,0.7460164335271785,Golfo de México y Caribe
Tabasco,Cárdenas,27_2_79,-93.44769055555555,18.168389444444447,Santana 3ra. Sección A (El Filero),0.1708034723997116,0.5727428793907166,518,1.6863828433401475,0.7456622554285217,Golfo de México y Caribe
Tabasco,Cárdenas,27_2_80,-93.46035277777779,18.138835555555556,Santana 4ta. Sección,0.16873513162136078,0.5704038143157959,519,1.685454425969143,0.7455352689682102,Golfo de México y Caribe
Tabasco,Cárdenas,27_2_84,-93.51797972222222,18.26092722222222,Santuario 1ra. Sección,0.1805724799633026,0.575667142868042,520,1.651784557318566,0.7409299938272813,Golfo de México y Caribe
Tabasco,Cárdenas,27_2_85,-93.49360083333333,18.268936944444444,Santuario 2da. Sección,0.18086117506027222,0.5767841339111328,521,1.655707706363679,0.7414665917261064,Golfo de México y Caribe
Tabasco,Cárdenas,27_2_89,-94.01903833333333,18.21133972222222,El Yucateco (Paylebot 2da. Sección),0.19759100675582886,0.5609487891197205,522,1.4964322145044657,0.7196813132971723,Golfo de México y Caribe
Tabasco,Cárdenas,27_2_93,-93.71892,18.187161666666668,Islas Encantadas 1ra. Sección (El Zapote),0.17856813967227936,0.5656710863113403,523,1.6137924987574166,0.7357335410385836,Golfo de México y Caribe
Tabasco,Cárdenas,27_2_94,-93.6125861111111,18.120051111111113,Poblado C-14 General Plutarco Elías Calles,0.16979427635669708,0.5640288591384888,524,1.6495891639726081,0.7406297137606844,Golfo de México y Caribe
Tabasco,Cárdenas,27_2_98,-93.55701527777778,18.28771888888889,Las Coloradas 2da. Sección B,0.18478910624980927,0.5755487680435181,525,1.6302255300213409,0.737981207376556,Golfo de México y Caribe
Tabasco,Cárdenas,27_2_99,-93.66726722222222,18.36402277777778,El Alacrán (Manatinero),0.197879359126091,0.5740172863006592,526,1.5577109984753577,0.7280628624922764,Golfo de México y Caribe
Tabasco,Cárdenas,27_2_100,-93.62122722222222,18.269788055555555,Azucena 5ta. Sección (El Apompal),0.1848812699317932,0.5726585388183594,527,1.6158968424426021,0.7360213675745861,Golfo de México y Caribe
Tabasco,Cárdenas,27_2_101,-93.59807444444444,18.256551666666667,Azucena 4ta. Sección (Torno Alegre),0.18254347145557404,0.5728204250335693,528,1.6283116063806407,0.7377194259881098,Golfo de México y Caribe
Tabasco,Cárdenas,27_2_113,-93.8853163888889,18.098590833333333,Buenavista 2da. Sección,0.17682036757469177,0.5551404356956482,529,1.5719577510324838,0.73001149543977,Golfo de México y Caribe
Tabasco,Cárdenas,27_2_114,-93.74639472222222,18.33689833333333,Sinaloa 2da. Sección (Arjona),0.19701272249221802,0.5711538791656494,530,1.5482840701695175,0.7267734722949832,Golfo de México y Caribe
Tabasco,Cárdenas,27_2_116,-93.7489811111111,18.113651111111114,Las Limas,0.17184989154338837,0.5598365664482117,531,1.6192376825234867,0.7364783188010369,Golfo de México y Caribe
Tabasco,Cárdenas,27_2_117,-93.62393888888889,18.0679725,Poblado C-22 Licenciado José María Pino Suárez,0.16581806540489197,0.5594136118888855,532,1.647235251884863,0.7403077519219221,Golfo de México y Caribe
